{"type": "FeatureCollection","features": [{"type": "Feature", "geometry": {"type":"Point","coordinates":[13.3553305,52.4925265]}, "properties": {"osm_id": 2188663985, "osm_type": "nodes", "amenity": "cafe", "name": "JOHANN Bäckerei"}},{"type": "Feature", "geometry": {"type":"Point","coordinates":[13.3538009,52.4931654]}, "properties": {"osm_id": 1525332786, "osm_type": "nodes", "amenity": "fast_food", "name": "Der Hot Dog Laden"}},{"type": "Feature", "geometry": {"type":"Point","coordinates":[13.351924,52.4933055]}, "properties": {"osm_id": 3480282004, "osm_type": "nodes", "amenity": "cafe", "name": "Mattea"}},{"type": "Feature", "geometry": {"type":"Point","coordinates":[13.3520538,52.4935533]}, "properties": {"osm_id": 6280799258, "osm_type": "nodes", "amenity": "bar", "name": "Fabelei"}},{"type": "Feature", "geometry": {"type":"Point","coordinates":[13.3527206,52.4933019]}, "properties": {"osm_id": 3547096691, "osm_type": "nodes", "amenity": "cafe", "name": "Der Cupcakeladen"}},{"type": "Feature", "geometry": {"type":"Point","coordinates":[13.3532929,52.4927363]}, "properties": {"osm_id": 2320709661, "osm_type": "nodes", "amenity": "cafe", "name": "Café Pink"}},{"type": "Feature", "geometry": {"type":"Point","coordinates":[13.3533229,52.4928356]}, "properties": {"osm_id": 5384055524, "osm_type": "nodes", "amenity": "bar", "name": "Mister Hu"}},{"type": "Feature", "geometry": {"type":"Point","coordinates":[13.3533462,52.4929032]}, "properties": {"osm_id": 6254428437, "osm_type": "nodes", "amenity": "cafe", "name": "The Visit"}},{"type": "Feature", "geometry": {"type":"Point","coordinates":[13.3534216,52.4910645]}, "properties": {"osm_id": 1525332844, "osm_type": "nodes", "amenity": "bar", "name": "Salut!"}},{"type": "Feature", "geometry": {"type":"Point","coordinates":[13.3522453,52.4921339]}, "properties": {"osm_id": 3480282003, "osm_type": "nodes", "amenity": "pub", "name": "Kuckucksei"}},{"type": "Feature", "geometry": {"type":"Point","coordinates":[13.3537762,52.4930653]}, "properties": {"osm_id": 9919376561, "osm_type": "nodes", "amenity": "restaurant", "name": "Da Zio Remo"}},{"type": "Feature", "geometry": {"type":"Point","coordinates":[13.353515,52.4935615]}, "properties": {"osm_id": 3219122463, "osm_type": "nodes", "amenity": "restaurant", "name": "Sironi"}},{"type": "Feature", "geometry": {"type":"Point","coordinates":[13.3572782,52.4985555]}, "properties": {"osm_id": 3480333694, "osm_type": "nodes", "amenity": "restaurant", "name": "Saigon Com Nieu"}},{"type": "Feature", "geometry": {"type":"Point","coordinates":[13.3570701,52.4993517]}, "properties": {"osm_id": 957661480, "osm_type": "nodes", "amenity": "restaurant", "name": "Bejte Ethiopia"}},{"type": "Feature", "geometry": {"type":"Point","coordinates":[13.3569355,52.4991462]}, "properties": {"osm_id": 9213654441, "osm_type": "nodes", "amenity": "restaurant", "name": "Frühstück 3000"}},{"type": "Feature", "geometry": {"type":"Point","coordinates":[13.356731,52.4991813]}, "properties": {"osm_id": 10594717941, "osm_type": "nodes", "amenity": "pub", "name": "Hardy's Pub"}},{"type": "Feature", "geometry": {"type":"Point","coordinates":[13.3549775,52.4990245]}, "properties": {"osm_id": 7068175927, "osm_type": "nodes", "amenity": "restaurant", "name": "Kordofan"}},{"type": "Feature", "geometry": {"type":"Point","coordinates":[13.3546365,52.4990491]}, "properties": {"osm_id": 3859397149, "osm_type": "nodes", "amenity": "fast_food", "name": "Balli"}},{"type": "Feature", "geometry": {"type":"Point","coordinates":[13.3533984,52.4902868]}, "properties": {"osm_id": 831416217, "osm_type": "nodes", "amenity": "cafe", "name": "Tee Tea Thé"}},{"type": "Feature", "geometry": {"type":"Point","coordinates":[13.3535008,52.4900203]}, "properties": {"osm_id": 3343102818, "osm_type": "nodes", "amenity": "cafe", "name": "Käffilein"}},{"type": "Feature", "geometry": {"type":"Point","coordinates":[13.3529979,52.490286]}, "properties": {"osm_id": 4948140221, "osm_type": "nodes", "amenity": "restaurant", "name": "Loyal"}},{"type": "Feature", "geometry": {"type":"Point","coordinates":[13.3520191,52.4900786]}, "properties": {"osm_id": 3644273693, "osm_type": "nodes", "amenity": "restaurant", "name": "Ho Lo and Friends"}},{"type": "Feature", "geometry": {"type":"Point","coordinates":[13.35183,52.4897358]}, "properties": {"osm_id": 11576186143, "osm_type": "nodes", "amenity": "fast_food", "name": "Bizzy’m Back"}},{"type": "Feature", "geometry": {"type":"Point","coordinates":[13.3521024,52.4874226]}, "properties": {"osm_id": 407730065, "osm_type": "nodes", "amenity": "restaurant", "name": "Gasthaus Renger-Patzsch"}},{"type": "Feature", "geometry": {"type":"Point","coordinates":[13.3519335,52.4857063]}, "properties": {"osm_id": 7998010523, "osm_type": "nodes", "amenity": "restaurant", "name": "Flying Fish Sushi"}},{"type": "Feature", "geometry": {"type":"Point","coordinates":[13.3529653,52.4899829]}, "properties": {"osm_id": 1522122185, "osm_type": "nodes", "amenity": "restaurant", "name": "Chi-Chi-Kan"}},{"type": "Feature", "geometry": {"type":"Point","coordinates":[13.3525685,52.4881786]}, "properties": {"osm_id": 1108235754, "osm_type": "nodes", "amenity": "bar", "name": "Maigold"}},{"type": "Feature", "geometry": {"type":"Point","coordinates":[13.3638496,52.4849619]}, "properties": {"osm_id": 7029938985, "osm_type": "nodes", "amenity": "restaurant", "name": "La Pizzetta"}},{"type": "Feature", "geometry": {"type":"Point","coordinates":[13.3649875,52.4852575]}, "properties": {"osm_id": 4723754689, "osm_type": "nodes", "amenity": "pub", "name": "Schöneberger Herz"}},{"type": "Feature", "geometry": {"type":"Point","coordinates":[13.3567303,52.4978826]}, "properties": {"osm_id": 10612266777, "osm_type": "nodes", "amenity": "restaurant", "name": "Masaya"}},{"type": "Feature", "geometry": {"type":"Point","coordinates":[13.3562993,52.4979752]}, "properties": {"osm_id": 383851727, "osm_type": "nodes", "amenity": "bar", "name": "Bar Voyage"}},{"type": "Feature", "geometry": {"type":"Point","coordinates":[13.3557787,52.4970743]}, "properties": {"osm_id": 1800828950, "osm_type": "nodes", "amenity": "restaurant", "name": "Boccacelli"}},{"type": "Feature", "geometry": {"type":"Point","coordinates":[13.3549267,52.4972372]}, "properties": {"osm_id": 1915596857, "osm_type": "nodes", "amenity": "restaurant", "name": "Aki Tatsu"}},{"type": "Feature", "geometry": {"type":"Point","coordinates":[13.3547765,52.4972817]}, "properties": {"osm_id": 1915596864, "osm_type": "nodes", "amenity": "restaurant", "name": "Amrit (Schöneberg)"}},{"type": "Feature", "geometry": {"type":"Point","coordinates":[13.354659,52.4976828]}, "properties": {"osm_id": 1915596915, "osm_type": "nodes", "amenity": "restaurant", "name": "Li Myra"}},{"type": "Feature", "geometry": {"type":"Point","coordinates":[13.3546305,52.4977747]}, "properties": {"osm_id": 1915596928, "osm_type": "nodes", "amenity": "restaurant", "name": "Sashimi - Sushi Lounge"}},{"type": "Feature", "geometry": {"type":"Point","coordinates":[13.3546087,52.4978392]}, "properties": {"osm_id": 1800828968, "osm_type": "nodes", "amenity": "restaurant", "name": "Kebapzade"}},{"type": "Feature", "geometry": {"type":"Point","coordinates":[13.3545763,52.4979518]}, "properties": {"osm_id": 1915596902, "osm_type": "nodes", "amenity": "cafe", "name": "Café Berio"}},{"type": "Feature", "geometry": {"type":"Point","coordinates":[13.3546662,52.4975547]}, "properties": {"osm_id": 1915596923, "osm_type": "nodes", "amenity": "cafe", "name": "Maxway Coffee"}},{"type": "Feature", "geometry": {"type":"Point","coordinates":[13.3549269,52.4969206]}, "properties": {"osm_id": 7239464453, "osm_type": "nodes", "amenity": "cafe", "name": "La Femme Quality"}},{"type": "Feature", "geometry": {"type":"Point","coordinates":[13.3551251,52.4969071]}, "properties": {"osm_id": 3480272977, "osm_type": "nodes", "amenity": "fast_food", "name": "Baharat Falafel"}},{"type": "Feature", "geometry": {"type":"Point","coordinates":[13.3553861,52.4971482]}, "properties": {"osm_id": 5762368941, "osm_type": "nodes", "amenity": "restaurant", "name": "Belmundo"}},{"type": "Feature", "geometry": {"type":"Point","coordinates":[13.3574754,52.4855588]}, "properties": {"osm_id": 5290226774, "osm_type": "nodes", "amenity": "cafe", "name": "Frieda Café & Bistro"}},{"type": "Feature", "geometry": {"type":"Point","coordinates":[13.3574466,52.4864674]}, "properties": {"osm_id": 5412597401, "osm_type": "nodes", "amenity": "cafe", "name": "Coffee Pony"}},{"type": "Feature", "geometry": {"type":"Point","coordinates":[13.3575433,52.4868741]}, "properties": {"osm_id": 3632644956, "osm_type": "nodes", "amenity": "restaurant", "name": "Cô Linh"}},{"type": "Feature", "geometry": {"type":"Point","coordinates":[13.3564809,52.4865355]}, "properties": {"osm_id": 10124692457, "osm_type": "nodes", "amenity": "restaurant", "name": "Sushi Goku"}},{"type": "Feature", "geometry": {"type":"Point","coordinates":[13.3562838,52.4863554]}, "properties": {"osm_id": 5080728653, "osm_type": "nodes", "amenity": "fast_food", "name": "7Days"}},{"type": "Feature", "geometry": {"type":"Point","coordinates":[13.3559088,52.4856721]}, "properties": {"osm_id": 9661594881, "osm_type": "nodes", "amenity": "cafe", "name": "deli am Markt"}},{"type": "Feature", "geometry": {"type":"Point","coordinates":[13.3556485,52.4866369]}, "properties": {"osm_id": 4723754589, "osm_type": "nodes", "amenity": "restaurant", "name": "Pho-Viet"}},{"type": "Feature", "geometry": {"type":"Point","coordinates":[13.3557273,52.4865603]}, "properties": {"osm_id": 1168683268, "osm_type": "nodes", "amenity": "restaurant", "name": "Nila"}},{"type": "Feature", "geometry": {"type":"Point","coordinates":[13.3557868,52.4865023]}, "properties": {"osm_id": 3379296155, "osm_type": "nodes", "amenity": "pub", "name": "Möve im Felsenkeller"}},{"type": "Feature", "geometry": {"type":"Point","coordinates":[13.3624937,52.4995975]}, "properties": {"osm_id": 3343659162, "osm_type": "nodes", "amenity": "bar", "name": "Pozzi Bar"}},{"type": "Feature", "geometry": {"type":"Point","coordinates":[13.3619442,52.4983467]}, "properties": {"osm_id": 3343659160, "osm_type": "nodes", "amenity": "fast_food", "name": "Alzad"}},{"type": "Feature", "geometry": {"type":"Point","coordinates":[13.3622142,52.4988979]}, "properties": {"osm_id": 3798843744, "osm_type": "nodes", "amenity": "cafe", "name": "Your Best Shot"}},{"type": "Feature", "geometry": {"type":"Point","coordinates":[13.3622347,52.4989491]}, "properties": {"osm_id": 3343659750, "osm_type": "nodes", "amenity": "cafe", "name": "call+more"}},{"type": "Feature", "geometry": {"type":"Point","coordinates":[13.3621228,52.4973693]}, "properties": {"osm_id": 6401352846, "osm_type": "nodes", "amenity": "fast_food", "name": "Burger & Döner City"}},{"type": "Feature", "geometry": {"type":"Point","coordinates":[13.36197,52.4969587]}, "properties": {"osm_id": 3855578746, "osm_type": "nodes", "amenity": "cafe", "name": "Lucca"}},{"type": "Feature", "geometry": {"type":"Point","coordinates":[13.3618999,52.4967993]}, "properties": {"osm_id": 7016358158, "osm_type": "nodes", "amenity": "pub", "name": "Begine"}},{"type": "Feature", "geometry": {"type":"Point","coordinates":[13.3619338,52.4968724]}, "properties": {"osm_id": 3855578743, "osm_type": "nodes", "amenity": "restaurant", "name": "Sofram"}},{"type": "Feature", "geometry": {"type":"Point","coordinates":[13.3620376,52.497137]}, "properties": {"osm_id": 3855567140, "osm_type": "nodes", "amenity": "restaurant", "name": "Thãnh nhõ"}},{"type": "Feature", "geometry": {"type":"Point","coordinates":[13.3620566,52.4972438]}, "properties": {"osm_id": 3855567142, "osm_type": "nodes", "amenity": "restaurant", "name": "Enefese"}},{"type": "Feature", "geometry": {"type":"Point","coordinates":[13.3616426,52.4976192]}, "properties": {"osm_id": 3855567795, "osm_type": "nodes", "amenity": "fast_food", "name": "Istanbul Grill"}},{"type": "Feature", "geometry": {"type":"Point","coordinates":[13.3614054,52.4970617]}, "properties": {"osm_id": 5718697027, "osm_type": "nodes", "amenity": "fast_food", "name": "Pizza Pasta Salat"}},{"type": "Feature", "geometry": {"type":"Point","coordinates":[13.3614604,52.4971744]}, "properties": {"osm_id": 5718697026, "osm_type": "nodes", "amenity": "fast_food", "name": "Döner & Chicken"}},{"type": "Feature", "geometry": {"type":"Point","coordinates":[13.3614751,52.4972342]}, "properties": {"osm_id": 3855567141, "osm_type": "nodes", "amenity": "fast_food", "name": "Köfteci"}},{"type": "Feature", "geometry": {"type":"Point","coordinates":[13.3615177,52.4973293]}, "properties": {"osm_id": 3855567146, "osm_type": "nodes", "amenity": "cafe", "name": "DiVan"}},{"type": "Feature", "geometry": {"type":"Point","coordinates":[13.361377,52.497708]}, "properties": {"osm_id": 6444647569, "osm_type": "nodes", "amenity": "pub", "name": "Bülow-Kneipe"}},{"type": "Feature", "geometry": {"type":"Point","coordinates":[13.361099,52.4977701]}, "properties": {"osm_id": 3855567144, "osm_type": "nodes", "amenity": "bar", "name": "Big Ben Bar"}},{"type": "Feature", "geometry": {"type":"Point","coordinates":[13.3611748,52.497753]}, "properties": {"osm_id": 6444647570, "osm_type": "nodes", "amenity": "bar", "name": "Louvre"}},{"type": "Feature", "geometry": {"type":"Point","coordinates":[13.3612508,52.4977355]}, "properties": {"osm_id": 3855574934, "osm_type": "nodes", "amenity": "fast_food", "name": "Yaprak Döner"}},{"type": "Feature", "geometry": {"type":"Point","coordinates":[13.3611772,52.4925932]}, "properties": {"osm_id": 4383882560, "osm_type": "nodes", "amenity": "cafe", "name": "Cafe Delux"}},{"type": "Feature", "geometry": {"type":"Point","coordinates":[13.3607931,52.4946174]}, "properties": {"osm_id": 2552461548, "osm_type": "nodes", "amenity": "restaurant", "name": "Pascha Grill"}},{"type": "Feature", "geometry": {"type":"Point","coordinates":[13.3607959,52.4946502]}, "properties": {"osm_id": 5718697037, "osm_type": "nodes", "amenity": "restaurant", "name": "Vegan Land"}},{"type": "Feature", "geometry": {"type":"Point","coordinates":[13.3589378,52.4893438]}, "properties": {"osm_id": 5718697046, "osm_type": "nodes", "amenity": "bar", "name": "Café Sportsbar"}},{"type": "Feature", "geometry": {"type":"Point","coordinates":[13.358919,52.4893283]}, "properties": {"osm_id": 5718697047, "osm_type": "nodes", "amenity": "bar", "name": "Cafe Isy"}},{"type": "Feature", "geometry": {"type":"Point","coordinates":[13.3592489,52.4863316]}, "properties": {"osm_id": 5913691182, "osm_type": "nodes", "amenity": "restaurant", "name": "D'Angelo"}},{"type": "Feature", "geometry": {"type":"Point","coordinates":[13.3591343,52.4865699]}, "properties": {"osm_id": 6723408556, "osm_type": "nodes", "amenity": "cafe", "name": "Café Star"}},{"type": "Feature", "geometry": {"type":"Point","coordinates":[13.3592734,52.48657]}, "properties": {"osm_id": 417009820, "osm_type": "nodes", "amenity": "bar", "name": "Der Weinlobbyist"}},{"type": "Feature", "geometry": {"type":"Point","coordinates":[13.3584247,52.4855319]}, "properties": {"osm_id": 9118384218, "osm_type": "nodes", "amenity": "pub", "name": "Jubi-Stübchen"}},{"type": "Feature", "geometry": {"type":"Point","coordinates":[13.3590224,52.4874508]}, "properties": {"osm_id": 3954285615, "osm_type": "nodes", "amenity": "cafe", "name": "Wilde Ehe"}},{"type": "Feature", "geometry": {"type":"Point","coordinates":[13.3614175,52.4953302]}, "properties": {"osm_id": 7010694786, "osm_type": "nodes", "amenity": "restaurant", "name": "Malakeh"}},{"type": "Feature", "geometry": {"type":"Point","coordinates":[13.3614235,52.4954831]}, "properties": {"osm_id": 7275391145, "osm_type": "nodes", "amenity": "bar", "name": "TV"}},{"type": "Feature", "geometry": {"type":"Point","coordinates":[13.363058,52.4957793]}, "properties": {"osm_id": 4967649020, "osm_type": "nodes", "amenity": "bar", "name": "Kupferkanne"}},{"type": "Feature", "geometry": {"type":"Point","coordinates":[13.3625637,52.4980339]}, "properties": {"osm_id": 10223983255, "osm_type": "nodes", "amenity": "cafe", "name": "Einstein Kaffee"}},{"type": "Feature", "geometry": {"type":"Point","coordinates":[13.3627192,52.4987353]}, "properties": {"osm_id": 1296266006, "osm_type": "nodes", "amenity": "fast_food", "name": "Fadi"}},{"type": "Feature", "geometry": {"type":"Point","coordinates":[13.3637225,52.5279868]}, "properties": {"osm_id": 4982092960, "osm_type": "nodes", "amenity": "restaurant", "name": "Rossi"}},{"type": "Feature", "geometry": {"type":"Point","coordinates":[13.3622678,52.5270272]}, "properties": {"osm_id": 4187993951, "osm_type": "nodes", "amenity": "restaurant", "name": "martas Kiezkantine"}},{"type": "Feature", "geometry": {"type":"Point","coordinates":[13.3780085,52.5168701]}, "properties": {"osm_id": 9821672966, "osm_type": "nodes", "amenity": "restaurant", "name": "mama trattoria"}},{"type": "Feature", "geometry": {"type":"Point","coordinates":[13.3580211,52.494573]}, "properties": {"osm_id": 1852738792, "osm_type": "nodes", "amenity": "cafe", "name": "Cafe Palladin"}},{"type": "Feature", "geometry": {"type":"Point","coordinates":[13.3665609,52.493689]}, "properties": {"osm_id": 3712324374, "osm_type": "nodes", "amenity": "restaurant", "name": "Hodori"}},{"type": "Feature", "geometry": {"type":"Point","coordinates":[13.3666463,52.4926599]}, "properties": {"osm_id": 3632387192, "osm_type": "nodes", "amenity": "pub", "name": "E. & M. Leydicke"}},{"type": "Feature", "geometry": {"type":"Point","coordinates":[13.3666134,52.4925778]}, "properties": {"osm_id": 3632387191, "osm_type": "nodes", "amenity": "cafe", "name": "Café Manstein 4"}},{"type": "Feature", "geometry": {"type":"Point","coordinates":[13.3645867,52.4920033]}, "properties": {"osm_id": 4654410911, "osm_type": "nodes", "amenity": "bar", "name": "Mein Freund Harvey"}},{"type": "Feature", "geometry": {"type":"Point","coordinates":[13.3640294,52.488058]}, "properties": {"osm_id": 3687506125, "osm_type": "nodes", "amenity": "bar", "name": "Barkett"}},{"type": "Feature", "geometry": {"type":"Point","coordinates":[13.3636771,52.4863418]}, "properties": {"osm_id": 2451154239, "osm_type": "nodes", "amenity": "pub", "name": "Jonas"}},{"type": "Feature", "geometry": {"type":"Point","coordinates":[13.3637287,52.485966]}, "properties": {"osm_id": 2451154240, "osm_type": "nodes", "amenity": "cafe", "name": "Naumann drei"}},{"type": "Feature", "geometry": {"type":"Point","coordinates":[13.3646314,52.4935419]}, "properties": {"osm_id": 10977483099, "osm_type": "nodes", "amenity": "cafe", "name": "Calypso"}},{"type": "Feature", "geometry": {"type":"Point","coordinates":[13.3644441,52.4935672]}, "properties": {"osm_id": 7389038823, "osm_type": "nodes", "amenity": "cafe", "name": "Hermanos"}},{"type": "Feature", "geometry": {"type":"Point","coordinates":[13.3649752,52.4934783]}, "properties": {"osm_id": 6825107609, "osm_type": "nodes", "amenity": "bar", "name": "Imperial"}},{"type": "Feature", "geometry": {"type":"Point","coordinates":[13.3733055,52.4990847]}, "properties": {"osm_id": 7803196080, "osm_type": "nodes", "amenity": "cafe", "name": "jules"}},{"type": "Feature", "geometry": {"type":"Point","coordinates":[13.3719184,52.496037]}, "properties": {"osm_id": 2780540637, "osm_type": "nodes", "amenity": "bar", "name": "Beach 61 (Bar)"}},{"type": "Feature", "geometry": {"type":"Point","coordinates":[13.3749094,52.5098812]}, "properties": {"osm_id": 1316047612, "osm_type": "nodes", "amenity": "restaurant", "name": "Lutter & Wegner"}},{"type": "Feature", "geometry": {"type":"Point","coordinates":[13.3737281,52.5101379]}, "properties": {"osm_id": 662579108, "osm_type": "nodes", "amenity": "restaurant", "name": "Josty"}},{"type": "Feature", "geometry": {"type":"Point","coordinates":[13.3731629,52.5103049]}, "properties": {"osm_id": 662579109, "osm_type": "nodes", "amenity": "restaurant", "name": "Corroboree"}},{"type": "Feature", "geometry": {"type":"Point","coordinates":[13.3747024,52.5083593]}, "properties": {"osm_id": 766467493, "osm_type": "nodes", "amenity": "cafe", "name": "the coffee shop"}},{"type": "Feature", "geometry": {"type":"Point","coordinates":[13.3746722,52.5081632]}, "properties": {"osm_id": 10693118843, "osm_type": "nodes", "amenity": "cafe", "name": "Waffel Brothers"}},{"type": "Feature", "geometry": {"type":"Point","coordinates":[13.3747425,52.5088647]}, "properties": {"osm_id": 1876560079, "osm_type": "nodes", "amenity": "restaurant", "name": "Pizza Hut"}},{"type": "Feature", "geometry": {"type":"Point","coordinates":[13.3743399,52.5090858]}, "properties": {"osm_id": 9929848017, "osm_type": "nodes", "amenity": "fast_food", "name": "Burgermeister"}},{"type": "Feature", "geometry": {"type":"Point","coordinates":[13.3743822,52.5081462]}, "properties": {"osm_id": 10652790812, "osm_type": "nodes", "amenity": "fast_food", "name": null}},{"type": "Feature", "geometry": {"type":"Point","coordinates":[13.3742842,52.5080728]}, "properties": {"osm_id": 10693118855, "osm_type": "nodes", "amenity": "fast_food", "name": "Fatih Servet"}},{"type": "Feature", "geometry": {"type":"Point","coordinates":[13.3742639,52.5080318]}, "properties": {"osm_id": 10652790814, "osm_type": "nodes", "amenity": "fast_food", "name": "Malang"}},{"type": "Feature", "geometry": {"type":"Point","coordinates":[13.374241,52.5079921]}, "properties": {"osm_id": 10652790813, "osm_type": "nodes", "amenity": "fast_food", "name": "Vincent Vegan"}},{"type": "Feature", "geometry": {"type":"Point","coordinates":[13.3742172,52.5079543]}, "properties": {"osm_id": 10652790815, "osm_type": "nodes", "amenity": "fast_food", "name": "KFC"}},{"type": "Feature", "geometry": {"type":"Point","coordinates":[13.3743411,52.5098082]}, "properties": {"osm_id": 260769007, "osm_type": "nodes", "amenity": "restaurant", "name": "Frederick‘s"}},{"type": "Feature", "geometry": {"type":"Point","coordinates":[13.3738853,52.5096119]}, "properties": {"osm_id": 4432971997, "osm_type": "nodes", "amenity": "restaurant", "name": "ALEX"}},{"type": "Feature", "geometry": {"type":"Point","coordinates":[13.3739893,52.5090261]}, "properties": {"osm_id": 3801422906, "osm_type": "nodes", "amenity": "bar", "name": "Qiu"}},{"type": "Feature", "geometry": {"type":"Point","coordinates":[13.3737391,52.5087806]}, "properties": {"osm_id": 2794459179, "osm_type": "nodes", "amenity": "restaurant", "name": "Facil"}},{"type": "Feature", "geometry": {"type":"Point","coordinates":[13.3736873,52.5095413]}, "properties": {"osm_id": 1754690705, "osm_type": "nodes", "amenity": "fast_food", "name": "Dunkin' Donuts"}},{"type": "Feature", "geometry": {"type":"Point","coordinates":[13.3731543,52.5095079]}, "properties": {"osm_id": 4398824290, "osm_type": "nodes", "amenity": "restaurant", "name": "Ki-NOVA"}},{"type": "Feature", "geometry": {"type":"Point","coordinates":[13.3744724,52.5087373]}, "properties": {"osm_id": 1202368746, "osm_type": "nodes", "amenity": "restaurant", "name": "Maredo"}},{"type": "Feature", "geometry": {"type":"Point","coordinates":[13.3623479,52.493908]}, "properties": {"osm_id": 4074718466, "osm_type": "nodes", "amenity": "restaurant", "name": "Prometeo"}},{"type": "Feature", "geometry": {"type":"Point","coordinates":[13.363224,52.4937676]}, "properties": {"osm_id": 6894842590, "osm_type": "nodes", "amenity": "bar", "name": "My Dream"}},{"type": "Feature", "geometry": {"type":"Point","coordinates":[13.3609478,52.4882026]}, "properties": {"osm_id": 271668412, "osm_type": "nodes", "amenity": "cafe", "name": "Cafe Sunar"}},{"type": "Feature", "geometry": {"type":"Point","coordinates":[13.3608975,52.4878665]}, "properties": {"osm_id": 3632644955, "osm_type": "nodes", "amenity": "restaurant", "name": "Ksara"}},{"type": "Feature", "geometry": {"type":"Point","coordinates":[13.361793,52.4882259]}, "properties": {"osm_id": 419317472, "osm_type": "nodes", "amenity": "pub", "name": "Robbys Calypso Bar"}},{"type": "Feature", "geometry": {"type":"Point","coordinates":[13.361927,52.4882652]}, "properties": {"osm_id": 275375441, "osm_type": "nodes", "amenity": "bar", "name": "Café Nostalgie"}},{"type": "Feature", "geometry": {"type":"Point","coordinates":[13.3625967,52.4885934]}, "properties": {"osm_id": 5518569192, "osm_type": "nodes", "amenity": "cafe", "name": "La Molisana"}},{"type": "Feature", "geometry": {"type":"Point","coordinates":[13.3621926,52.4891063]}, "properties": {"osm_id": 5894453610, "osm_type": "nodes", "amenity": "restaurant", "name": "La Cantine d'Augusta"}},{"type": "Feature", "geometry": {"type":"Point","coordinates":[13.3606738,52.4900157]}, "properties": {"osm_id": 3632408171, "osm_type": "nodes", "amenity": "restaurant", "name": "Petite Europe"}},{"type": "Feature", "geometry": {"type":"Point","coordinates":[13.3605679,52.4900829]}, "properties": {"osm_id": 3632408148, "osm_type": "nodes", "amenity": "cafe", "name": "Dino's Eiscafé"}},{"type": "Feature", "geometry": {"type":"Point","coordinates":[13.3608188,52.490636]}, "properties": {"osm_id": 689563415, "osm_type": "nodes", "amenity": "fast_food", "name": "Sufi"}},{"type": "Feature", "geometry": {"type":"Point","coordinates":[13.3611765,52.4914835]}, "properties": {"osm_id": 3724817189, "osm_type": "nodes", "amenity": "restaurant", "name": "Cafe Peri"}},{"type": "Feature", "geometry": {"type":"Point","coordinates":[13.3611393,52.490943]}, "properties": {"osm_id": 999294630, "osm_type": "nodes", "amenity": "fast_food", "name": "Burger Vision"}},{"type": "Feature", "geometry": {"type":"Point","coordinates":[13.3612042,52.4901048]}, "properties": {"osm_id": 1171149516, "osm_type": "nodes", "amenity": "fast_food", "name": "Köyüm Imbiss"}},{"type": "Feature", "geometry": {"type":"Point","coordinates":[13.3618001,52.4902527]}, "properties": {"osm_id": 4304061290, "osm_type": "nodes", "amenity": "restaurant", "name": "Olio Sale Pepe"}},{"type": "Feature", "geometry": {"type":"Point","coordinates":[13.3606762,52.4865603]}, "properties": {"osm_id": 727851984, "osm_type": "nodes", "amenity": "cafe", "name": "ess eins"}},{"type": "Feature", "geometry": {"type":"Point","coordinates":[13.3613204,52.4862522]}, "properties": {"osm_id": 417009812, "osm_type": "nodes", "amenity": "fast_food", "name": "Efdal"}},{"type": "Feature", "geometry": {"type":"Point","coordinates":[13.3613187,52.4854772]}, "properties": {"osm_id": 6466143388, "osm_type": "nodes", "amenity": "restaurant", "name": "Saigon Alley"}},{"type": "Feature", "geometry": {"type":"Point","coordinates":[13.3613164,52.485329]}, "properties": {"osm_id": 2454290041, "osm_type": "nodes", "amenity": "cafe", "name": "Sully"}},{"type": "Feature", "geometry": {"type":"Point","coordinates":[13.3616307,52.4851453]}, "properties": {"osm_id": 6594385592, "osm_type": "nodes", "amenity": "restaurant", "name": "Gokan"}},{"type": "Feature", "geometry": {"type":"Point","coordinates":[13.3616363,52.4854375]}, "properties": {"osm_id": 3446661006, "osm_type": "nodes", "amenity": "cafe", "name": "Taubenschlag"}},{"type": "Feature", "geometry": {"type":"Point","coordinates":[13.3617521,52.4861034]}, "properties": {"osm_id": 6192424368, "osm_type": "nodes", "amenity": "cafe", "name": "Cafe Efsane"}},{"type": "Feature", "geometry": {"type":"Point","coordinates":[13.3621341,52.485609]}, "properties": {"osm_id": 7012366286, "osm_type": "nodes", "amenity": "fast_food", "name": "Tuana Feinkost"}},{"type": "Feature", "geometry": {"type":"Point","coordinates":[13.362386,52.485305]}, "properties": {"osm_id": 6747095838, "osm_type": "nodes", "amenity": "restaurant", "name": "Apna virsa"}},{"type": "Feature", "geometry": {"type":"Point","coordinates":[13.3623727,52.4855063]}, "properties": {"osm_id": 8561915236, "osm_type": "nodes", "amenity": "fast_food", "name": "Döner 27"}},{"type": "Feature", "geometry": {"type":"Point","coordinates":[13.3627814,52.4856881]}, "properties": {"osm_id": 6192424375, "osm_type": "nodes", "amenity": "cafe", "name": "Daddy"}},{"type": "Feature", "geometry": {"type":"Point","coordinates":[13.3626542,52.4863699]}, "properties": {"osm_id": 6216154171, "osm_type": "nodes", "amenity": "cafe", "name": "Koriat Kuchenmanufaktur"}},{"type": "Feature", "geometry": {"type":"Point","coordinates":[13.3510084,52.5085894]}, "properties": {"osm_id": 11207891154, "osm_type": "nodes", "amenity": "cafe", "name": "Blue Nordic Coffee"}},{"type": "Feature", "geometry": {"type":"Point","coordinates":[13.3481187,52.5059443]}, "properties": {"osm_id": 3085295820, "osm_type": "nodes", "amenity": "restaurant", "name": "Cafe Lützow"}},{"type": "Feature", "geometry": {"type":"Point","coordinates":[13.3602987,52.498435]}, "properties": {"osm_id": 10108299146, "osm_type": "nodes", "amenity": "cafe", "name": "Bistro FreiFläche"}},{"type": "Feature", "geometry": {"type":"Point","coordinates":[13.3579232,52.4966531]}, "properties": {"osm_id": 3480334314, "osm_type": "nodes", "amenity": "bar", "name": "Voima"}},{"type": "Feature", "geometry": {"type":"Point","coordinates":[13.3616498,52.4962069]}, "properties": {"osm_id": 3855567799, "osm_type": "nodes", "amenity": "restaurant", "name": "P-145"}},{"type": "Feature", "geometry": {"type":"Point","coordinates":[13.3608817,52.4956357]}, "properties": {"osm_id": 3478877036, "osm_type": "nodes", "amenity": "cafe", "name": "Alte Forno Cafe"}},{"type": "Feature", "geometry": {"type":"Point","coordinates":[13.3608655,52.4955607]}, "properties": {"osm_id": 3478877034, "osm_type": "nodes", "amenity": "restaurant", "name": "Alte Forno Pizzeria"}},{"type": "Feature", "geometry": {"type":"Point","coordinates":[13.3608659,52.4954967]}, "properties": {"osm_id": 3478877033, "osm_type": "nodes", "amenity": "restaurant", "name": "Atlantik Fischrestaurant"}},{"type": "Feature", "geometry": {"type":"Point","coordinates":[13.3608489,52.4953251]}, "properties": {"osm_id": 5718697033, "osm_type": "nodes", "amenity": "fast_food", "name": "Köfteci"}},{"type": "Feature", "geometry": {"type":"Point","coordinates":[13.3596758,52.496009]}, "properties": {"osm_id": 3854437095, "osm_type": "nodes", "amenity": "fast_food", "name": "Tori-Katsu"}},{"type": "Feature", "geometry": {"type":"Point","coordinates":[13.3591888,52.4961043]}, "properties": {"osm_id": 10916472810, "osm_type": "nodes", "amenity": "restaurant", "name": "Nafis"}},{"type": "Feature", "geometry": {"type":"Point","coordinates":[13.3586509,52.4962163]}, "properties": {"osm_id": 5401357623, "osm_type": "nodes", "amenity": "restaurant", "name": "Rocoto"}},{"type": "Feature", "geometry": {"type":"Point","coordinates":[13.3578795,52.4963075]}, "properties": {"osm_id": 4870379004, "osm_type": "nodes", "amenity": "cafe", "name": "hub:raum Café"}},{"type": "Feature", "geometry": {"type":"Point","coordinates":[13.3656244,52.481588]}, "properties": {"osm_id": 5129702426, "osm_type": "nodes", "amenity": "fast_food", "name": "Naumann Küche"}},{"type": "Feature", "geometry": {"type":"Point","coordinates":[13.3607602,52.4765808]}, "properties": {"osm_id": 6373792224, "osm_type": "nodes", "amenity": "restaurant", "name": "Le Quartier - Bistronomie"}},{"type": "Feature", "geometry": {"type":"Point","coordinates":[13.3615985,52.4837475]}, "properties": {"osm_id": 3773021623, "osm_type": "nodes", "amenity": "restaurant", "name": "Pizza & Burger"}},{"type": "Feature", "geometry": {"type":"Point","coordinates":[13.3615872,52.4839719]}, "properties": {"osm_id": 1871865192, "osm_type": "nodes", "amenity": "pub", "name": "Inselnest"}},{"type": "Feature", "geometry": {"type":"Point","coordinates":[13.3615931,52.484251]}, "properties": {"osm_id": 3446657748, "osm_type": "nodes", "amenity": "cafe", "name": "Mokalola"}},{"type": "Feature", "geometry": {"type":"Point","coordinates":[13.3615708,52.4829815]}, "properties": {"osm_id": 3446931180, "osm_type": "nodes", "amenity": "restaurant", "name": "Seoul Garden"}},{"type": "Feature", "geometry": {"type":"Point","coordinates":[13.3616183,52.4833602]}, "properties": {"osm_id": 4163133893, "osm_type": "nodes", "amenity": "bar", "name": "Erna P!"}},{"type": "Feature", "geometry": {"type":"Point","coordinates":[13.3893884,52.517976]}, "properties": {"osm_id": 9798282715, "osm_type": "nodes", "amenity": "restaurant", "name": "Bella Vita"}},{"type": "Feature", "geometry": {"type":"Point","coordinates":[13.390123,52.51742]}, "properties": {"osm_id": 3309841363, "osm_type": "nodes", "amenity": "restaurant", "name": "Blossom"}},{"type": "Feature", "geometry": {"type":"Point","coordinates":[13.3899146,52.5161429]}, "properties": {"osm_id": 337503862, "osm_type": "nodes", "amenity": "restaurant", "name": "Bonjour Vietnam"}},{"type": "Feature", "geometry": {"type":"Point","coordinates":[13.3899247,52.5158107]}, "properties": {"osm_id": 86001790, "osm_type": "nodes", "amenity": "fast_food", "name": "Subway"}},{"type": "Feature", "geometry": {"type":"Point","coordinates":[13.3901542,52.5158454]}, "properties": {"osm_id": 2121100045, "osm_type": "nodes", "amenity": "restaurant", "name": "Sagrantino"}},{"type": "Feature", "geometry": {"type":"Point","coordinates":[13.3904178,52.5168089]}, "properties": {"osm_id": 5336742122, "osm_type": "nodes", "amenity": "cafe", "name": "The Digital Eatery"}},{"type": "Feature", "geometry": {"type":"Point","coordinates":[13.3888747,52.5152105]}, "properties": {"osm_id": 4690337763, "osm_type": "nodes", "amenity": "cafe", "name": "Einstein Kaffee"}},{"type": "Feature", "geometry": {"type":"Point","coordinates":[13.3868475,52.5171877]}, "properties": {"osm_id": 11576264628, "osm_type": "nodes", "amenity": "restaurant", "name": "Maredo"}},{"type": "Feature", "geometry": {"type":"Point","coordinates":[13.3869064,52.5171785]}, "properties": {"osm_id": 437320468, "osm_type": "nodes", "amenity": "cafe", "name": "Segafredo"}},{"type": "Feature", "geometry": {"type":"Point","coordinates":[13.3902935,52.5182338]}, "properties": {"osm_id": 11762544217, "osm_type": "nodes", "amenity": "bar", "name": "Freundschaft"}},{"type": "Feature", "geometry": {"type":"Point","coordinates":[13.3899735,52.5133716]}, "properties": {"osm_id": 6801987029, "osm_type": "nodes", "amenity": "bar", "name": null}},{"type": "Feature", "geometry": {"type":"Point","coordinates":[13.3903882,52.5150034]}, "properties": {"osm_id": 86001798, "osm_type": "nodes", "amenity": "restaurant", "name": "Restaurant Borchardt"}},{"type": "Feature", "geometry": {"type":"Point","coordinates":[13.3896088,52.5134769]}, "properties": {"osm_id": 6714794979, "osm_type": "nodes", "amenity": "cafe", "name": "Einstein Kaffee"}},{"type": "Feature", "geometry": {"type":"Point","coordinates":[13.3889505,52.5151154]}, "properties": {"osm_id": 86001794, "osm_type": "nodes", "amenity": "restaurant", "name": "Bocca di Bacco"}},{"type": "Feature", "geometry": {"type":"Point","coordinates":[13.3872995,52.51385]}, "properties": {"osm_id": 4120984825, "osm_type": "nodes", "amenity": "restaurant", "name": "Zen"}},{"type": "Feature", "geometry": {"type":"Point","coordinates":[13.3867623,52.5138299]}, "properties": {"osm_id": 918183881, "osm_type": "nodes", "amenity": "restaurant", "name": "Dolcini"}},{"type": "Feature", "geometry": {"type":"Point","coordinates":[13.386008,52.5070028]}, "properties": {"osm_id": 5133857265, "osm_type": "nodes", "amenity": "restaurant", "name": "Yarok"}},{"type": "Feature", "geometry": {"type":"Point","coordinates":[13.3860462,52.50761]}, "properties": {"osm_id": 5742012717, "osm_type": "nodes", "amenity": "fast_food", "name": "Landing Lounge"}},{"type": "Feature", "geometry": {"type":"Point","coordinates":[13.3858907,52.5072565]}, "properties": {"osm_id": 4188056689, "osm_type": "nodes", "amenity": "fast_food", "name": "Typisch Berlin"}},{"type": "Feature", "geometry": {"type":"Point","coordinates":[13.385778,52.5076369]}, "properties": {"osm_id": 4188056691, "osm_type": "nodes", "amenity": "fast_food", "name": "Curry at the Wall"}},{"type": "Feature", "geometry": {"type":"Point","coordinates":[13.3879776,52.5076675]}, "properties": {"osm_id": 4906464456, "osm_type": "nodes", "amenity": "cafe", "name": "die espressonisten"}},{"type": "Feature", "geometry": {"type":"Point","coordinates":[13.3851524,52.5026176]}, "properties": {"osm_id": 1484847608, "osm_type": "nodes", "amenity": "restaurant", "name": "Diomira"}},{"type": "Feature", "geometry": {"type":"Point","coordinates":[13.3879317,52.5041263]}, "properties": {"osm_id": 5270743414, "osm_type": "nodes", "amenity": "fast_food", "name": "Yoko Sushi"}},{"type": "Feature", "geometry": {"type":"Point","coordinates":[13.3886201,52.5029314]}, "properties": {"osm_id": 4841062924, "osm_type": "nodes", "amenity": "restaurant", "name": "Mama Cook"}},{"type": "Feature", "geometry": {"type":"Point","coordinates":[13.3880831,52.5036412]}, "properties": {"osm_id": 1431856371, "osm_type": "nodes", "amenity": "restaurant", "name": "Steakhouse Asador"}},{"type": "Feature", "geometry": {"type":"Point","coordinates":[13.3886738,52.5025227]}, "properties": {"osm_id": 1278753315, "osm_type": "nodes", "amenity": "restaurant", "name": "piazza papà pane"}},{"type": "Feature", "geometry": {"type":"Point","coordinates":[13.3905386,52.505459]}, "properties": {"osm_id": 7137270088, "osm_type": "nodes", "amenity": "restaurant", "name": "Shima"}},{"type": "Feature", "geometry": {"type":"Point","coordinates":[13.3905401,52.5053879]}, "properties": {"osm_id": 3718480033, "osm_type": "nodes", "amenity": "restaurant", "name": "Nobelhart & Schmutzig"}},{"type": "Feature", "geometry": {"type":"Point","coordinates":[13.3904613,52.5058194]}, "properties": {"osm_id": 2181178790, "osm_type": "nodes", "amenity": "cafe", "name": "The Barn"}},{"type": "Feature", "geometry": {"type":"Point","coordinates":[13.3632289,52.4814946]}, "properties": {"osm_id": 2028823935, "osm_type": "nodes", "amenity": "cafe", "name": "Cafe Mon Cherie"}},{"type": "Feature", "geometry": {"type":"Point","coordinates":[13.3632491,52.4809579]}, "properties": {"osm_id": 9749382416, "osm_type": "nodes", "amenity": "cafe", "name": "Pretty Hill"}},{"type": "Feature", "geometry": {"type":"Point","coordinates":[13.3623391,52.4820775]}, "properties": {"osm_id": 7216141846, "osm_type": "nodes", "amenity": "cafe", "name": "Café Noli"}},{"type": "Feature", "geometry": {"type":"Point","coordinates":[13.3615501,52.4817341]}, "properties": {"osm_id": 3446931211, "osm_type": "nodes", "amenity": "pub", "name": "Zur Roten Insel"}},{"type": "Feature", "geometry": {"type":"Point","coordinates":[13.3733975,52.4959199]}, "properties": {"osm_id": 2287270716, "osm_type": "nodes", "amenity": "cafe", "name": "Pauls Liegewiese"}},{"type": "Feature", "geometry": {"type":"Point","coordinates":[13.388343,52.500366]}, "properties": {"osm_id": 1271006408, "osm_type": "nodes", "amenity": "restaurant", "name": "Willy's Bistro"}},{"type": "Feature", "geometry": {"type":"Point","coordinates":[13.3890261,52.501387]}, "properties": {"osm_id": 4741547274, "osm_type": "nodes", "amenity": "bar", "name": "Café Linie 1"}},{"type": "Feature", "geometry": {"type":"Point","coordinates":[13.3891226,52.5015824]}, "properties": {"osm_id": 5036103422, "osm_type": "nodes", "amenity": "pub", "name": "Schicksaal"}},{"type": "Feature", "geometry": {"type":"Point","coordinates":[13.3884662,52.5181301]}, "properties": {"osm_id": 5715768008, "osm_type": "nodes", "amenity": "restaurant", "name": "ChecpOint"}},{"type": "Feature", "geometry": {"type":"Point","coordinates":[13.3882827,52.5178945]}, "properties": {"osm_id": 380498268, "osm_type": "nodes", "amenity": "restaurant", "name": "Treffpunkt Berlin"}},{"type": "Feature", "geometry": {"type":"Point","coordinates":[13.3877591,52.5178141]}, "properties": {"osm_id": 10879673819, "osm_type": "nodes", "amenity": "cafe", "name": "World Chess Club Berlin"}},{"type": "Feature", "geometry": {"type":"Point","coordinates":[13.3880748,52.5178809]}, "properties": {"osm_id": 2187058416, "osm_type": "nodes", "amenity": "cafe", "name": "Telefónica Basecamp"}},{"type": "Feature", "geometry": {"type":"Point","coordinates":[13.3879755,52.51665]}, "properties": {"osm_id": 4912175121, "osm_type": "nodes", "amenity": "cafe", "name": "Casa Italia"}},{"type": "Feature", "geometry": {"type":"Point","coordinates":[13.3877424,52.5174493]}, "properties": {"osm_id": 5758190721, "osm_type": "nodes", "amenity": "cafe", "name": "The visit coffee"}},{"type": "Feature", "geometry": {"type":"Point","coordinates":[13.3880749,52.5163833]}, "properties": {"osm_id": 5357305476, "osm_type": "nodes", "amenity": "restaurant", "name": "Cookies Cream"}},{"type": "Feature", "geometry": {"type":"Point","coordinates":[13.3882615,52.5164251]}, "properties": {"osm_id": 3198562918, "osm_type": "nodes", "amenity": "restaurant", "name": "Crackers"}},{"type": "Feature", "geometry": {"type":"Point","coordinates":[13.3882153,52.5166524]}, "properties": {"osm_id": 4487513227, "osm_type": "nodes", "amenity": "restaurant", "name": "Nante-Eck"}},{"type": "Feature", "geometry": {"type":"Point","coordinates":[13.389083,52.5167071]}, "properties": {"osm_id": 6632052287, "osm_type": "nodes", "amenity": "restaurant", "name": "Little Green Rabbit"}},{"type": "Feature", "geometry": {"type":"Point","coordinates":[13.3887515,52.5182344]}, "properties": {"osm_id": 6219782685, "osm_type": "nodes", "amenity": "restaurant", "name": "Ursprung"}},{"type": "Feature", "geometry": {"type":"Point","coordinates":[13.3884964,52.5179153]}, "properties": {"osm_id": 6734418241, "osm_type": "nodes", "amenity": "restaurant", "name": "Little Green Rabbit"}},{"type": "Feature", "geometry": {"type":"Point","coordinates":[13.371948,52.5266873]}, "properties": {"osm_id": 6983349351, "osm_type": "nodes", "amenity": "cafe", "name": "Coffee Fellows"}},{"type": "Feature", "geometry": {"type":"Point","coordinates":[13.3730123,52.528161]}, "properties": {"osm_id": 833068990, "osm_type": "nodes", "amenity": "restaurant", "name": "Restaurant im Hamburger Bahnhof"}},{"type": "Feature", "geometry": {"type":"Point","coordinates":[13.3724523,52.5266907]}, "properties": {"osm_id": 6983349352, "osm_type": "nodes", "amenity": "restaurant", "name": "L'Osteria"}},{"type": "Feature", "geometry": {"type":"Point","coordinates":[13.3722029,52.5266874]}, "properties": {"osm_id": 6983349353, "osm_type": "nodes", "amenity": "restaurant", "name": "Wildes Fräulein"}},{"type": "Feature", "geometry": {"type":"Point","coordinates":[13.3737245,52.5176023]}, "properties": {"osm_id": 489761194, "osm_type": "nodes", "amenity": "cafe", "name": "Berlin Pavillon am Reichstag"}},{"type": "Feature", "geometry": {"type":"Point","coordinates":[13.3711438,52.4695529]}, "properties": {"osm_id": 260753892, "osm_type": "nodes", "amenity": "fast_food", "name": "McDonald's"}},{"type": "Feature", "geometry": {"type":"Point","coordinates":[13.3678,52.4623343]}, "properties": {"osm_id": 8686567378, "osm_type": "nodes", "amenity": "fast_food", "name": "Asian Food"}},{"type": "Feature", "geometry": {"type":"Point","coordinates":[13.3799778,52.52183]}, "properties": {"osm_id": 3456238093, "osm_type": "nodes", "amenity": "cafe", "name": "Mittelpunkt-Café"}},{"type": "Feature", "geometry": {"type":"Point","coordinates":[13.3796538,52.5215538]}, "properties": {"osm_id": 7779103116, "osm_type": "nodes", "amenity": "restaurant", "name": "Habel"}},{"type": "Feature", "geometry": {"type":"Point","coordinates":[13.379881,52.5223526]}, "properties": {"osm_id": 332554290, "osm_type": "nodes", "amenity": "restaurant", "name": "Volver"}},{"type": "Feature", "geometry": {"type":"Point","coordinates":[13.3600402,52.4848294]}, "properties": {"osm_id": 1871902483, "osm_type": "nodes", "amenity": "restaurant", "name": "Wirtshaus Heuberger"}},{"type": "Feature", "geometry": {"type":"Point","coordinates":[13.3601498,52.4878927]}, "properties": {"osm_id": 3954285617, "osm_type": "nodes", "amenity": "cafe", "name": "Lili Marleen"}},{"type": "Feature", "geometry": {"type":"Point","coordinates":[13.3596813,52.4877101]}, "properties": {"osm_id": 3632641427, "osm_type": "nodes", "amenity": "cafe", "name": "Café Projekt"}},{"type": "Feature", "geometry": {"type":"Point","coordinates":[13.3597959,52.4877517]}, "properties": {"osm_id": 3632641428, "osm_type": "nodes", "amenity": "pub", "name": "Leuchtturm"}},{"type": "Feature", "geometry": {"type":"Point","coordinates":[13.3595091,52.48633]}, "properties": {"osm_id": 6723408551, "osm_type": "nodes", "amenity": "cafe", "name": "Cafe Seven"}},{"type": "Feature", "geometry": {"type":"Point","coordinates":[13.3595551,52.4892261]}, "properties": {"osm_id": 10314816007, "osm_type": "nodes", "amenity": "cafe", "name": "Lookma"}},{"type": "Feature", "geometry": {"type":"Point","coordinates":[13.3596601,52.489346]}, "properties": {"osm_id": 3632408169, "osm_type": "nodes", "amenity": "fast_food", "name": "Imren"}},{"type": "Feature", "geometry": {"type":"Point","coordinates":[13.3597788,52.4895234]}, "properties": {"osm_id": 3632408170, "osm_type": "nodes", "amenity": "bar", "name": "Neues Ufer"}},{"type": "Feature", "geometry": {"type":"Point","coordinates":[13.359534,52.4899871]}, "properties": {"osm_id": 670658037, "osm_type": "nodes", "amenity": "pub", "name": "Zoulou Bar"}},{"type": "Feature", "geometry": {"type":"Point","coordinates":[13.3595731,52.4892699]}, "properties": {"osm_id": 3632409697, "osm_type": "nodes", "amenity": "bar", "name": "Seventies"}},{"type": "Feature", "geometry": {"type":"Point","coordinates":[13.3601424,52.489912]}, "properties": {"osm_id": 839083366, "osm_type": "nodes", "amenity": "fast_food", "name": "three buddies"}},{"type": "Feature", "geometry": {"type":"Point","coordinates":[13.3600924,52.4898574]}, "properties": {"osm_id": 10314816002, "osm_type": "nodes", "amenity": "fast_food", "name": "Sahara"}},{"type": "Feature", "geometry": {"type":"Point","coordinates":[13.3600591,52.489807]}, "properties": {"osm_id": 10314816003, "osm_type": "nodes", "amenity": "fast_food", "name": "hamdi baba"}},{"type": "Feature", "geometry": {"type":"Point","coordinates":[13.3600199,52.4897591]}, "properties": {"osm_id": 9968022377, "osm_type": "nodes", "amenity": "restaurant", "name": "Pitaya"}},{"type": "Feature", "geometry": {"type":"Point","coordinates":[13.3599067,52.4896568]}, "properties": {"osm_id": 9766311546, "osm_type": "nodes", "amenity": "restaurant", "name": "Gia Bao Quan"}},{"type": "Feature", "geometry": {"type":"Point","coordinates":[13.3594546,52.4899158]}, "properties": {"osm_id": 3954285621, "osm_type": "nodes", "amenity": "cafe", "name": "Smyrna"}},{"type": "Feature", "geometry": {"type":"Point","coordinates":[13.3604752,52.4812649]}, "properties": {"osm_id": 4439286054, "osm_type": "nodes", "amenity": "pub", "name": "Schöneberger Pinte"}},{"type": "Feature", "geometry": {"type":"Point","coordinates":[13.3612554,52.4812946]}, "properties": {"osm_id": 3874680812, "osm_type": "nodes", "amenity": "bar", "name": "Weinverein Rote Insel"}},{"type": "Feature", "geometry": {"type":"Point","coordinates":[13.36042,52.483005]}, "properties": {"osm_id": 3446657745, "osm_type": "nodes", "amenity": "bar", "name": "Jansen Bar"}},{"type": "Feature", "geometry": {"type":"Point","coordinates":[13.360099,52.4834522]}, "properties": {"osm_id": 4514436089, "osm_type": "nodes", "amenity": "restaurant", "name": "Über den Tellerrand"}},{"type": "Feature", "geometry": {"type":"Point","coordinates":[13.3600919,52.4811324]}, "properties": {"osm_id": 5679822734, "osm_type": "nodes", "amenity": "restaurant", "name": "Trattoria Pizzeria LuNa"}},{"type": "Feature", "geometry": {"type":"Point","coordinates":[13.373558,52.4869995]}, "properties": {"osm_id": 4940945138, "osm_type": "nodes", "amenity": "restaurant", "name": "LOK6"}},{"type": "Feature", "geometry": {"type":"Point","coordinates":[13.3740815,52.4879945]}, "properties": {"osm_id": 6856217637, "osm_type": "nodes", "amenity": "bar", "name": "Herbst"}},{"type": "Feature", "geometry": {"type":"Point","coordinates":[13.3737245,52.4876481]}, "properties": {"osm_id": 2734481331, "osm_type": "nodes", "amenity": "restaurant", "name": "Ripieno"}},{"type": "Feature", "geometry": {"type":"Point","coordinates":[13.3681395,52.5245138]}, "properties": {"osm_id": 2231321435, "osm_type": "nodes", "amenity": "fast_food", "name": "wurststand HBF"}},{"type": "Feature", "geometry": {"type":"Point","coordinates":[13.3680214,52.5225403]}, "properties": {"osm_id": 6813921789, "osm_type": "nodes", "amenity": "cafe", "name": "Tucano Coffee"}},{"type": "Feature", "geometry": {"type":"Point","coordinates":[13.3674466,52.5226169]}, "properties": {"osm_id": 7171914485, "osm_type": "nodes", "amenity": "cafe", "name": "Maxway Coffee"}},{"type": "Feature", "geometry": {"type":"Point","coordinates":[13.3519798,52.5240394]}, "properties": {"osm_id": 2288127747, "osm_type": "nodes", "amenity": "fast_food", "name": "Smile"}},{"type": "Feature", "geometry": {"type":"Point","coordinates":[13.3530757,52.5238928]}, "properties": {"osm_id": 2837044347, "osm_type": "nodes", "amenity": "pub", "name": "Moabit ist Beste"}},{"type": "Feature", "geometry": {"type":"Point","coordinates":[13.3534285,52.5219213]}, "properties": {"osm_id": 4372108392, "osm_type": "nodes", "amenity": "pub", "name": "Spener Stuben"}},{"type": "Feature", "geometry": {"type":"Point","coordinates":[13.3483549,52.5146541]}, "properties": {"osm_id": 270667310, "osm_type": "nodes", "amenity": "cafe", "name": "Café Viktoria"}},{"type": "Feature", "geometry": {"type":"Point","coordinates":[13.3536719,52.5047351]}, "properties": {"osm_id": 3830239586, "osm_type": "nodes", "amenity": "restaurant", "name": "Restaurant Tra Di Noi"}},{"type": "Feature", "geometry": {"type":"Point","coordinates":[13.3535636,52.5045842]}, "properties": {"osm_id": 3830235403, "osm_type": "nodes", "amenity": "bar", "name": "Bar am Lützowplatz"}},{"type": "Feature", "geometry": {"type":"Point","coordinates":[13.3540388,52.5054444]}, "properties": {"osm_id": 3830676261, "osm_type": "nodes", "amenity": "restaurant", "name": "EckKneipe"}},{"type": "Feature", "geometry": {"type":"Point","coordinates":[13.3566973,52.5049281]}, "properties": {"osm_id": 6325963105, "osm_type": "nodes", "amenity": "cafe", "name": "my deli love"}},{"type": "Feature", "geometry": {"type":"Point","coordinates":[13.3572887,52.5044862]}, "properties": {"osm_id": 2424605187, "osm_type": "nodes", "amenity": "restaurant", "name": "Swadishta"}},{"type": "Feature", "geometry": {"type":"Point","coordinates":[13.3570157,52.5048459]}, "properties": {"osm_id": 2837335509, "osm_type": "nodes", "amenity": "cafe", "name": "Café Mom & Son"}},{"type": "Feature", "geometry": {"type":"Point","coordinates":[13.3575351,52.5010234]}, "properties": {"osm_id": 9703079917, "osm_type": "nodes", "amenity": "cafe", "name": "Exclusive Coffee"}},{"type": "Feature", "geometry": {"type":"Point","coordinates":[13.3582826,52.5016137]}, "properties": {"osm_id": 4977255088, "osm_type": "nodes", "amenity": "fast_food", "name": "Asia Food-Sushi"}},{"type": "Feature", "geometry": {"type":"Point","coordinates":[13.3592244,52.5025949]}, "properties": {"osm_id": 2425321862, "osm_type": "nodes", "amenity": "restaurant", "name": "Kantine Arbeitsgericht"}},{"type": "Feature", "geometry": {"type":"Point","coordinates":[13.3761579,52.5310286]}, "properties": {"osm_id": 7235772170, "osm_type": "nodes", "amenity": "fast_food", "name": "Kantine im Bundesministerium für Digitales und Verkehr"}},{"type": "Feature", "geometry": {"type":"Point","coordinates":[13.3754599,52.5002687]}, "properties": {"osm_id": 4407986956, "osm_type": "nodes", "amenity": "bar", "name": "Gleis 11"}},{"type": "Feature", "geometry": {"type":"Point","coordinates":[13.3750823,52.5035919]}, "properties": {"osm_id": 9983950190, "osm_type": "nodes", "amenity": "cafe", "name": "Pinch"}},{"type": "Feature", "geometry": {"type":"Point","coordinates":[13.3620801,52.5014222]}, "properties": {"osm_id": 6845042072, "osm_type": "nodes", "amenity": "bar", "name": "Isotop"}},{"type": "Feature", "geometry": {"type":"Point","coordinates":[13.3713448,52.5019493]}, "properties": {"osm_id": 2686158208, "osm_type": "nodes", "amenity": "restaurant", "name": "Back & Cafe Flott"}},{"type": "Feature", "geometry": {"type":"Point","coordinates":[13.3729484,52.5029278]}, "properties": {"osm_id": 3677887852, "osm_type": "nodes", "amenity": "restaurant", "name": "Tischlein deck Dich"}},{"type": "Feature", "geometry": {"type":"Point","coordinates":[13.3736145,52.5000198]}, "properties": {"osm_id": 4367758889, "osm_type": "nodes", "amenity": "pub", "name": "Brło Brwhouse"}},{"type": "Feature", "geometry": {"type":"Point","coordinates":[13.3634943,52.5221419]}, "properties": {"osm_id": 5062614777, "osm_type": "nodes", "amenity": "cafe", "name": null}},{"type": "Feature", "geometry": {"type":"Point","coordinates":[13.3644784,52.5225899]}, "properties": {"osm_id": 137483925, "osm_type": "nodes", "amenity": "restaurant", "name": "Paris-Moskau"}},{"type": "Feature", "geometry": {"type":"Point","coordinates":[13.3650096,52.5192414]}, "properties": {"osm_id": 3507467127, "osm_type": "nodes", "amenity": "restaurant", "name": "Weltwirtschaft"}},{"type": "Feature", "geometry": {"type":"Point","coordinates":[13.3714141,52.5293909]}, "properties": {"osm_id": 4917192165, "osm_type": "nodes", "amenity": "restaurant", "name": "Reinhard Bär"}},{"type": "Feature", "geometry": {"type":"Point","coordinates":[13.3689344,52.5244692]}, "properties": {"osm_id": 2821132945, "osm_type": "nodes", "amenity": "cafe", "name": "Costa"}},{"type": "Feature", "geometry": {"type":"Point","coordinates":[13.3690752,52.5245149]}, "properties": {"osm_id": 6680211887, "osm_type": "nodes", "amenity": "fast_food", "name": "Curry 36"}},{"type": "Feature", "geometry": {"type":"Point","coordinates":[13.3692369,52.5245795]}, "properties": {"osm_id": 4070598667, "osm_type": "nodes", "amenity": "fast_food", "name": "GOSCH Sylt"}},{"type": "Feature", "geometry": {"type":"Point","coordinates":[13.3668503,52.5212821]}, "properties": {"osm_id": 269676264, "osm_type": "nodes", "amenity": "restaurant", "name": "Zollpackhof"}},{"type": "Feature", "geometry": {"type":"Point","coordinates":[13.342122,52.517306]}, "properties": {"osm_id": 8957399847, "osm_type": "nodes", "amenity": "fast_food", "name": "Babushka's"}},{"type": "Feature", "geometry": {"type":"Point","coordinates":[13.3860357,52.5235009]}, "properties": {"osm_id": 4851771733, "osm_type": "nodes", "amenity": "restaurant", "name": "Ga Ya Ya"}},{"type": "Feature", "geometry": {"type":"Point","coordinates":[13.3862191,52.5237548]}, "properties": {"osm_id": 10542792281, "osm_type": "nodes", "amenity": "cafe", "name": "Café Nr. 10"}},{"type": "Feature", "geometry": {"type":"Point","coordinates":[13.38628,52.5235496]}, "properties": {"osm_id": 4226497212, "osm_type": "nodes", "amenity": "restaurant", "name": "Bistro Ribelle"}},{"type": "Feature", "geometry": {"type":"Point","coordinates":[13.3865223,52.5238004]}, "properties": {"osm_id": 333136582, "osm_type": "nodes", "amenity": "restaurant", "name": "Van-Long"}},{"type": "Feature", "geometry": {"type":"Point","coordinates":[13.3851786,52.5233639]}, "properties": {"osm_id": 5619908339, "osm_type": "nodes", "amenity": "cafe", "name": "Mensa"}},{"type": "Feature", "geometry": {"type":"Point","coordinates":[13.3837544,52.5230929]}, "properties": {"osm_id": 333136478, "osm_type": "nodes", "amenity": "cafe", "name": "Café Albrecht"}},{"type": "Feature", "geometry": {"type":"Point","coordinates":[13.3828675,52.5229855]}, "properties": {"osm_id": 1714250170, "osm_type": "nodes", "amenity": "cafe", "name": "Backshop Cafe am Deutschen Theater"}},{"type": "Feature", "geometry": {"type":"Point","coordinates":[13.38456,52.5218537]}, "properties": {"osm_id": 1075397105, "osm_type": "nodes", "amenity": "cafe", "name": "Sag mir wo die Blumen sind"}},{"type": "Feature", "geometry": {"type":"Point","coordinates":[13.3845929,52.5222512]}, "properties": {"osm_id": 1447292287, "osm_type": "nodes", "amenity": "restaurant", "name": "Boccondivino"}},{"type": "Feature", "geometry": {"type":"Point","coordinates":[13.3844511,52.5219949]}, "properties": {"osm_id": 3180581857, "osm_type": "nodes", "amenity": "restaurant", "name": "ALvis"}},{"type": "Feature", "geometry": {"type":"Point","coordinates":[13.3838875,52.5223201]}, "properties": {"osm_id": 332625324, "osm_type": "nodes", "amenity": "pub", "name": "Böse Buben Bar"}},{"type": "Feature", "geometry": {"type":"Point","coordinates":[13.3842198,52.5223558]}, "properties": {"osm_id": 3180581858, "osm_type": "nodes", "amenity": "restaurant", "name": "Pizzeria Marienkäfer"}},{"type": "Feature", "geometry": {"type":"Point","coordinates":[13.384282,52.5206164]}, "properties": {"osm_id": 332625327, "osm_type": "nodes", "amenity": "cafe", "name": "Zimt & Zucker"}},{"type": "Feature", "geometry": {"type":"Point","coordinates":[13.3847097,52.5208236]}, "properties": {"osm_id": 1391604297, "osm_type": "nodes", "amenity": "bar", "name": "Bar Tausend"}},{"type": "Feature", "geometry": {"type":"Point","coordinates":[13.3841398,52.5224873]}, "properties": {"osm_id": 3276753106, "osm_type": "nodes", "amenity": "restaurant", "name": null}},{"type": "Feature", "geometry": {"type":"Point","coordinates":[13.3864563,52.5184631]}, "properties": {"osm_id": 1310749383, "osm_type": "nodes", "amenity": "restaurant", "name": "Gaffel Haus Berlin"}},{"type": "Feature", "geometry": {"type":"Point","coordinates":[13.3859461,52.517102]}, "properties": {"osm_id": 1412218896, "osm_type": "nodes", "amenity": "cafe", "name": "Cafe Einstein"}},{"type": "Feature", "geometry": {"type":"Point","coordinates":[13.3861893,52.5184424]}, "properties": {"osm_id": 3419393693, "osm_type": "nodes", "amenity": "bar", "name": "Windhorst"}},{"type": "Feature", "geometry": {"type":"Point","coordinates":[13.3855752,52.5188432]}, "properties": {"osm_id": 1349696693, "osm_type": "nodes", "amenity": "restaurant", "name": "Il Punto"}},{"type": "Feature", "geometry": {"type":"Point","coordinates":[13.385604,52.518677]}, "properties": {"osm_id": 1349696690, "osm_type": "nodes", "amenity": "restaurant", "name": "Antica Lasagneria"}},{"type": "Feature", "geometry": {"type":"Point","coordinates":[13.3854499,52.516853]}, "properties": {"osm_id": 10885617116, "osm_type": "nodes", "amenity": "fast_food", "name": "Burgerkette"}},{"type": "Feature", "geometry": {"type":"Point","coordinates":[13.3865429,52.5180238]}, "properties": {"osm_id": 1926895420, "osm_type": "nodes", "amenity": "restaurant", "name": "Ishin"}},{"type": "Feature", "geometry": {"type":"Point","coordinates":[13.3682213,52.5301827]}, "properties": {"osm_id": 10041416932, "osm_type": "nodes", "amenity": "restaurant", "name": "Saigon River"}},{"type": "Feature", "geometry": {"type":"Point","coordinates":[13.3681831,52.5309447]}, "properties": {"osm_id": 8285124434, "osm_type": "nodes", "amenity": "cafe", "name": "Exclusive Coffee"}},{"type": "Feature", "geometry": {"type":"Point","coordinates":[13.3688109,52.5294927]}, "properties": {"osm_id": 4361415625, "osm_type": "nodes", "amenity": "fast_food", "name": "Europa City Imbiss"}},{"type": "Feature", "geometry": {"type":"Point","coordinates":[13.3692951,52.5237386]}, "properties": {"osm_id": 8996370133, "osm_type": "nodes", "amenity": "cafe", "name": "Coffee Fellows"}},{"type": "Feature", "geometry": {"type":"Point","coordinates":[13.3904317,52.5259462]}, "properties": {"osm_id": 1781450127, "osm_type": "nodes", "amenity": "restaurant", "name": "Al Dente"}},{"type": "Feature", "geometry": {"type":"Point","coordinates":[13.3897761,52.5255204]}, "properties": {"osm_id": 11506333459, "osm_type": "nodes", "amenity": "restaurant", "name": "The Dry Gin and Beef Club"}},{"type": "Feature", "geometry": {"type":"Point","coordinates":[13.3893628,52.5277467]}, "properties": {"osm_id": 10704808953, "osm_type": "nodes", "amenity": "cafe", "name": "Bella's Café"}},{"type": "Feature", "geometry": {"type":"Point","coordinates":[13.3890629,52.5280561]}, "properties": {"osm_id": 2692637607, "osm_type": "nodes", "amenity": "restaurant", "name": "Smart Deli"}},{"type": "Feature", "geometry": {"type":"Point","coordinates":[13.3890236,52.528135]}, "properties": {"osm_id": 1552045336, "osm_type": "nodes", "amenity": "bar", "name": "Patesô"}},{"type": "Feature", "geometry": {"type":"Point","coordinates":[13.3888247,52.5277484]}, "properties": {"osm_id": 6687804305, "osm_type": "nodes", "amenity": "cafe", "name": "Suō Noodle House"}},{"type": "Feature", "geometry": {"type":"Point","coordinates":[13.388203,52.5275166]}, "properties": {"osm_id": 4948140227, "osm_type": "nodes", "amenity": "bar", "name": "Lust Bar"}},{"type": "Feature", "geometry": {"type":"Point","coordinates":[13.3884355,52.5275672]}, "properties": {"osm_id": 6436005116, "osm_type": "nodes", "amenity": "restaurant", "name": "Arata"}},{"type": "Feature", "geometry": {"type":"Point","coordinates":[13.3886111,52.5276115]}, "properties": {"osm_id": 5715364553, "osm_type": "nodes", "amenity": "bar", "name": "Anna Hirsch Bar"}},{"type": "Feature", "geometry": {"type":"Point","coordinates":[13.3886032,52.5272355]}, "properties": {"osm_id": 3648813686, "osm_type": "nodes", "amenity": "restaurant", "name": "Marral"}},{"type": "Feature", "geometry": {"type":"Point","coordinates":[13.3882412,52.5264583]}, "properties": {"osm_id": 961626642, "osm_type": "nodes", "amenity": "restaurant", "name": "annabell's spätzle"}},{"type": "Feature", "geometry": {"type":"Point","coordinates":[13.3886693,52.5261784]}, "properties": {"osm_id": 333136722, "osm_type": "nodes", "amenity": "restaurant", "name": "Sausalitos"}},{"type": "Feature", "geometry": {"type":"Point","coordinates":[13.3884544,52.5252774]}, "properties": {"osm_id": 11506527568, "osm_type": "nodes", "amenity": "restaurant", "name": "Eat Happy"}},{"type": "Feature", "geometry": {"type":"Point","coordinates":[13.3881315,52.5259607]}, "properties": {"osm_id": 9155779778, "osm_type": "nodes", "amenity": "cafe", "name": "Velvet 52"}},{"type": "Feature", "geometry": {"type":"Point","coordinates":[13.3880152,52.5260119]}, "properties": {"osm_id": 333136721, "osm_type": "nodes", "amenity": "cafe", "name": "Espresso Ambulanz"}},{"type": "Feature", "geometry": {"type":"Point","coordinates":[13.3879477,52.5264453]}, "properties": {"osm_id": 279301578, "osm_type": "nodes", "amenity": "restaurant", "name": "Gambrinus"}},{"type": "Feature", "geometry": {"type":"Point","coordinates":[13.388009,52.5264492]}, "properties": {"osm_id": 4813445331, "osm_type": "nodes", "amenity": "fast_food", "name": "Kebab Baba"}},{"type": "Feature", "geometry": {"type":"Point","coordinates":[13.3881434,52.5264558]}, "properties": {"osm_id": 279301771, "osm_type": "nodes", "amenity": "fast_food", "name": "Dada Falafel"}},{"type": "Feature", "geometry": {"type":"Point","coordinates":[13.387876,52.5264418]}, "properties": {"osm_id": 1129787603, "osm_type": "nodes", "amenity": "restaurant", "name": "Pho"}},{"type": "Feature", "geometry": {"type":"Point","coordinates":[13.3877486,52.5264338]}, "properties": {"osm_id": 279301588, "osm_type": "nodes", "amenity": "restaurant", "name": "Sahoi"}},{"type": "Feature", "geometry": {"type":"Point","coordinates":[13.3873513,52.5268092]}, "properties": {"osm_id": 4813445328, "osm_type": "nodes", "amenity": "restaurant", "name": "Café CousCous"}},{"type": "Feature", "geometry": {"type":"Point","coordinates":[13.3875602,52.5259096]}, "properties": {"osm_id": 6576517800, "osm_type": "nodes", "amenity": "restaurant", "name": "Joseph"}},{"type": "Feature", "geometry": {"type":"Point","coordinates":[13.3875986,52.5257754]}, "properties": {"osm_id": 6665437536, "osm_type": "nodes", "amenity": "restaurant", "name": "Stadtsalat"}},{"type": "Feature", "geometry": {"type":"Point","coordinates":[13.3869997,52.525912]}, "properties": {"osm_id": 275564580, "osm_type": "nodes", "amenity": "cafe", "name": "Espresso House"}},{"type": "Feature", "geometry": {"type":"Point","coordinates":[13.3869757,52.5264422]}, "properties": {"osm_id": 3654653725, "osm_type": "nodes", "amenity": "restaurant", "name": "Yuuka Buffet"}},{"type": "Feature", "geometry": {"type":"Point","coordinates":[13.386948,52.5266334]}, "properties": {"osm_id": 1552051570, "osm_type": "nodes", "amenity": "restaurant", "name": "Pantry"}},{"type": "Feature", "geometry": {"type":"Point","coordinates":[13.3869617,52.5265406]}, "properties": {"osm_id": 11717554372, "osm_type": "nodes", "amenity": "cafe", "name": "Seven Coffee"}},{"type": "Feature", "geometry": {"type":"Point","coordinates":[13.3869841,52.5264159]}, "properties": {"osm_id": 11991388869, "osm_type": "nodes", "amenity": "restaurant", "name": "Sanku Maots'ai"}},{"type": "Feature", "geometry": {"type":"Point","coordinates":[13.387434,52.5237305]}, "properties": {"osm_id": 622642558, "osm_type": "nodes", "amenity": "restaurant", "name": "Giotto"}},{"type": "Feature", "geometry": {"type":"Point","coordinates":[13.3871462,52.5250993]}, "properties": {"osm_id": 333136586, "osm_type": "nodes", "amenity": "restaurant", "name": "Roma"}},{"type": "Feature", "geometry": {"type":"Point","coordinates":[13.3868725,52.5238713]}, "properties": {"osm_id": 333136584, "osm_type": "nodes", "amenity": "restaurant", "name": "Akito"}},{"type": "Feature", "geometry": {"type":"Point","coordinates":[13.3851104,52.5236029]}, "properties": {"osm_id": 1951034843, "osm_type": "nodes", "amenity": "cafe", "name": "Espresso Bar"}},{"type": "Feature", "geometry": {"type":"Point","coordinates":[13.3853444,52.5236266]}, "properties": {"osm_id": 333136484, "osm_type": "nodes", "amenity": "restaurant", "name": "Dehlers"}},{"type": "Feature", "geometry": {"type":"Point","coordinates":[13.356437,52.4946833]}, "properties": {"osm_id": 2543036913, "osm_type": "nodes", "amenity": "restaurant", "name": "Palladin Kochschule"}},{"type": "Feature", "geometry": {"type":"Point","coordinates":[13.3563719,52.4925735]}, "properties": {"osm_id": 3479948153, "osm_type": "nodes", "amenity": "bar", "name": "Hudson Bar"}},{"type": "Feature", "geometry": {"type":"Point","coordinates":[13.3566501,52.4946637]}, "properties": {"osm_id": 2552449932, "osm_type": "nodes", "amenity": "cafe", "name": "Pallas Back-Snack & Bistro"}},{"type": "Feature", "geometry": {"type":"Point","coordinates":[13.3565728,52.4901302]}, "properties": {"osm_id": 5760441943, "osm_type": "nodes", "amenity": "cafe", "name": "Caffèmania"}},{"type": "Feature", "geometry": {"type":"Point","coordinates":[13.3555115,52.4902121]}, "properties": {"osm_id": 3962476718, "osm_type": "nodes", "amenity": "restaurant", "name": "Fine Food"}},{"type": "Feature", "geometry": {"type":"Point","coordinates":[13.3556219,52.4902219]}, "properties": {"osm_id": 4383697867, "osm_type": "nodes", "amenity": "restaurant", "name": "WaWa"}},{"type": "Feature", "geometry": {"type":"Point","coordinates":[13.3383799,52.526299]}, "properties": {"osm_id": 895721096, "osm_type": "nodes", "amenity": "fast_food", "name": "Curry Eck"}},{"type": "Feature", "geometry": {"type":"Point","coordinates":[13.3382169,52.5263088]}, "properties": {"osm_id": 2470183077, "osm_type": "nodes", "amenity": "fast_food", "name": "Humbaba"}},{"type": "Feature", "geometry": {"type":"Point","coordinates":[13.3366895,52.5268006]}, "properties": {"osm_id": 4625232920, "osm_type": "nodes", "amenity": "fast_food", "name": "Pizza Pasta"}},{"type": "Feature", "geometry": {"type":"Point","coordinates":[13.3363386,52.5268335]}, "properties": {"osm_id": 2072371209, "osm_type": "nodes", "amenity": "cafe", "name": "Marasch Eis"}},{"type": "Feature", "geometry": {"type":"Point","coordinates":[13.3362384,52.5268438]}, "properties": {"osm_id": 5238513323, "osm_type": "nodes", "amenity": "fast_food", "name": "Risa Chicken"}},{"type": "Feature", "geometry": {"type":"Point","coordinates":[13.3360289,52.5268538]}, "properties": {"osm_id": 4626413458, "osm_type": "nodes", "amenity": "fast_food", "name": "Gemüse-Döner"}},{"type": "Feature", "geometry": {"type":"Point","coordinates":[13.3373966,52.5263973]}, "properties": {"osm_id": 2470183078, "osm_type": "nodes", "amenity": "fast_food", "name": "Grillhähnchen"}},{"type": "Feature", "geometry": {"type":"Point","coordinates":[13.3374709,52.5263897]}, "properties": {"osm_id": 3831991073, "osm_type": "nodes", "amenity": "fast_food", "name": "Pizza con Amore"}},{"type": "Feature", "geometry": {"type":"Point","coordinates":[13.3374828,52.526714]}, "properties": {"osm_id": 645677474, "osm_type": "nodes", "amenity": "fast_food", "name": "Smackburger"}},{"type": "Feature", "geometry": {"type":"Point","coordinates":[13.337633,52.5263748]}, "properties": {"osm_id": 3831989957, "osm_type": "nodes", "amenity": "restaurant", "name": "McDarwich's Crispy"}},{"type": "Feature", "geometry": {"type":"Point","coordinates":[13.3373717,52.5267223]}, "properties": {"osm_id": 4625231107, "osm_type": "nodes", "amenity": "fast_food", "name": "Moabiter Döner"}},{"type": "Feature", "geometry": {"type":"Point","coordinates":[13.3375654,52.5269795]}, "properties": {"osm_id": 3865738058, "osm_type": "nodes", "amenity": "fast_food", "name": "Kirşehir’li Gözlemeci"}},{"type": "Feature", "geometry": {"type":"Point","coordinates":[13.3422558,52.5264932]}, "properties": {"osm_id": 3841171912, "osm_type": "nodes", "amenity": "cafe", "name": "Alara"}},{"type": "Feature", "geometry": {"type":"Point","coordinates":[13.3283071,52.5321631]}, "properties": {"osm_id": 3900935686, "osm_type": "nodes", "amenity": "pub", "name": "Zum gemütlichen Laternchen"}},{"type": "Feature", "geometry": {"type":"Point","coordinates":[13.328742,52.5318408]}, "properties": {"osm_id": 10003704989, "osm_type": "nodes", "amenity": "fast_food", "name": "Sushi City"}},{"type": "Feature", "geometry": {"type":"Point","coordinates":[13.328746,52.5317092]}, "properties": {"osm_id": 10003704988, "osm_type": "nodes", "amenity": "bar", "name": "Café Arda"}},{"type": "Feature", "geometry": {"type":"Point","coordinates":[13.3287365,52.533089]}, "properties": {"osm_id": 557918947, "osm_type": "nodes", "amenity": "fast_food", "name": "Beussel Grill"}},{"type": "Feature", "geometry": {"type":"Point","coordinates":[13.3287187,52.5326839]}, "properties": {"osm_id": 4454024993, "osm_type": "nodes", "amenity": "cafe", "name": "Neue Nachbarschaft"}},{"type": "Feature", "geometry": {"type":"Point","coordinates":[13.3315261,52.5322494]}, "properties": {"osm_id": 1590031005, "osm_type": "nodes", "amenity": "cafe", "name": "Einer dieser Tage"}},{"type": "Feature", "geometry": {"type":"Point","coordinates":[13.3319553,52.5315097]}, "properties": {"osm_id": 11025916772, "osm_type": "nodes", "amenity": "fast_food", "name": null}},{"type": "Feature", "geometry": {"type":"Point","coordinates":[13.3288675,52.5302234]}, "properties": {"osm_id": 4453818134, "osm_type": "nodes", "amenity": "pub", "name": "Multikulti-Treffpunkt"}},{"type": "Feature", "geometry": {"type":"Point","coordinates":[13.3288778,52.5290074]}, "properties": {"osm_id": 4454024999, "osm_type": "nodes", "amenity": "cafe", "name": "D Joma"}},{"type": "Feature", "geometry": {"type":"Point","coordinates":[13.3289036,52.5280441]}, "properties": {"osm_id": 617630777, "osm_type": "nodes", "amenity": "restaurant", "name": "Kahraman Restaurant"}},{"type": "Feature", "geometry": {"type":"Point","coordinates":[13.3289224,52.5281328]}, "properties": {"osm_id": 4411605189, "osm_type": "nodes", "amenity": "bar", "name": "Layal Lounge"}},{"type": "Feature", "geometry": {"type":"Point","coordinates":[13.328433,52.5284371]}, "properties": {"osm_id": 617630779, "osm_type": "nodes", "amenity": "pub", "name": "Beussel 71"}},{"type": "Feature", "geometry": {"type":"Point","coordinates":[13.328434,52.5285096]}, "properties": {"osm_id": 4454025007, "osm_type": "nodes", "amenity": "cafe", "name": "Vildan"}},{"type": "Feature", "geometry": {"type":"Point","coordinates":[13.3284776,52.5278649]}, "properties": {"osm_id": 616921896, "osm_type": "nodes", "amenity": "fast_food", "name": "Aras"}},{"type": "Feature", "geometry": {"type":"Point","coordinates":[13.3284535,52.5282486]}, "properties": {"osm_id": 4411589593, "osm_type": "nodes", "amenity": "bar", "name": "Akita Sushi Bar"}},{"type": "Feature", "geometry": {"type":"Point","coordinates":[13.3284012,52.5297728]}, "properties": {"osm_id": 616921895, "osm_type": "nodes", "amenity": "restaurant", "name": "Dasomi"}},{"type": "Feature", "geometry": {"type":"Point","coordinates":[13.3284308,52.5294138]}, "properties": {"osm_id": 4454024995, "osm_type": "nodes", "amenity": "fast_food", "name": "G.P.S Grilled Pocket Sandwich"}},{"type": "Feature", "geometry": {"type":"Point","coordinates":[13.3843493,52.5183392]}, "properties": {"osm_id": 5823129297, "osm_type": "nodes", "amenity": "restaurant", "name": "beets&roots"}},{"type": "Feature", "geometry": {"type":"Point","coordinates":[13.3844268,52.5179403]}, "properties": {"osm_id": 7981237444, "osm_type": "nodes", "amenity": "restaurant", "name": "1687 RESTAURANT & CAFÉ"}},{"type": "Feature", "geometry": {"type":"Point","coordinates":[13.3841452,52.5183026]}, "properties": {"osm_id": 7080484500, "osm_type": "nodes", "amenity": "cafe", "name": "ama"}},{"type": "Feature", "geometry": {"type":"Point","coordinates":[13.3894802,52.5296763]}, "properties": {"osm_id": 9959890117, "osm_type": "nodes", "amenity": "restaurant", "name": "Nomad"}},{"type": "Feature", "geometry": {"type":"Point","coordinates":[13.389461,52.5295928]}, "properties": {"osm_id": 2866993673, "osm_type": "nodes", "amenity": "restaurant", "name": "Nomade Cafe"}},{"type": "Feature", "geometry": {"type":"Point","coordinates":[13.3872773,52.5223889]}, "properties": {"osm_id": 3854309286, "osm_type": "nodes", "amenity": "pub", "name": "Murphy's Irish Pub"}},{"type": "Feature", "geometry": {"type":"Point","coordinates":[13.3882443,52.5226168]}, "properties": {"osm_id": 387772992, "osm_type": "nodes", "amenity": "restaurant", "name": "Italofritzen"}},{"type": "Feature", "geometry": {"type":"Point","coordinates":[13.3884395,52.5225633]}, "properties": {"osm_id": 2884321484, "osm_type": "nodes", "amenity": "restaurant", "name": "Grill Royal"}},{"type": "Feature", "geometry": {"type":"Point","coordinates":[13.3884841,52.5230186]}, "properties": {"osm_id": 622642560, "osm_type": "nodes", "amenity": "restaurant", "name": "Boulevard Friedrichstraße"}},{"type": "Feature", "geometry": {"type":"Point","coordinates":[13.3884968,52.5231491]}, "properties": {"osm_id": 333136723, "osm_type": "nodes", "amenity": "restaurant", "name": "Bombay"}},{"type": "Feature", "geometry": {"type":"Point","coordinates":[13.389123,52.5226702]}, "properties": {"osm_id": 1765962610, "osm_type": "nodes", "amenity": "restaurant", "name": "Spree 105c"}},{"type": "Feature", "geometry": {"type":"Point","coordinates":[13.38874,52.522644]}, "properties": {"osm_id": 1765962611, "osm_type": "nodes", "amenity": "bar", "name": "meisterschueler"}},{"type": "Feature", "geometry": {"type":"Point","coordinates":[13.3889304,52.5265141]}, "properties": {"osm_id": 9945056563, "osm_type": "nodes", "amenity": "fast_food", "name": "Wiki Wiki Poke"}},{"type": "Feature", "geometry": {"type":"Point","coordinates":[13.3890513,52.5263316]}, "properties": {"osm_id": 1132623105, "osm_type": "nodes", "amenity": "restaurant", "name": "Sagrantino 136"}},{"type": "Feature", "geometry": {"type":"Point","coordinates":[13.3889346,52.526308]}, "properties": {"osm_id": 960944158, "osm_type": "nodes", "amenity": "restaurant", "name": "Xinh Xinh"}},{"type": "Feature", "geometry": {"type":"Point","coordinates":[13.3889454,52.5260701]}, "properties": {"osm_id": 9155808807, "osm_type": "nodes", "amenity": "fast_food", "name": "Magic John's"}},{"type": "Feature", "geometry": {"type":"Point","coordinates":[13.389102,52.5256864]}, "properties": {"osm_id": 11500350808, "osm_type": "nodes", "amenity": "restaurant", "name": "Verōnika"}},{"type": "Feature", "geometry": {"type":"Point","coordinates":[13.3896272,52.5259421]}, "properties": {"osm_id": 279302123, "osm_type": "nodes", "amenity": "restaurant", "name": "Amrit"}},{"type": "Feature", "geometry": {"type":"Point","coordinates":[13.3894424,52.5259949]}, "properties": {"osm_id": 302864488, "osm_type": "nodes", "amenity": "restaurant", "name": "QBA"}},{"type": "Feature", "geometry": {"type":"Point","coordinates":[13.3906231,52.523591]}, "properties": {"osm_id": 10159636436, "osm_type": "nodes", "amenity": "restaurant", "name": "The Indique"}},{"type": "Feature", "geometry": {"type":"Point","coordinates":[13.3903086,52.525894]}, "properties": {"osm_id": 1781450166, "osm_type": "nodes", "amenity": "restaurant", "name": "Pas´Qua"}},{"type": "Feature", "geometry": {"type":"Point","coordinates":[13.3886628,52.5200272]}, "properties": {"osm_id": 7589526279, "osm_type": "nodes", "amenity": "cafe", "name": "Wayne's Coffee"}},{"type": "Feature", "geometry": {"type":"Point","coordinates":[13.3887381,52.5194029]}, "properties": {"osm_id": 66917199, "osm_type": "nodes", "amenity": "cafe", "name": "Starbucks"}},{"type": "Feature", "geometry": {"type":"Point","coordinates":[13.390001,52.5199995]}, "properties": {"osm_id": 530810715, "osm_type": "nodes", "amenity": "restaurant", "name": "Tex-Mex Cantina"}},{"type": "Feature", "geometry": {"type":"Point","coordinates":[13.3904824,52.5203576]}, "properties": {"osm_id": 1811815459, "osm_type": "nodes", "amenity": "cafe", "name": "Coffeebar"}},{"type": "Feature", "geometry": {"type":"Point","coordinates":[13.3896382,52.5199754]}, "properties": {"osm_id": 9641470250, "osm_type": "nodes", "amenity": "fast_food", "name": "Chupenga"}},{"type": "Feature", "geometry": {"type":"Point","coordinates":[13.3895023,52.519946]}, "properties": {"osm_id": 6222997925, "osm_type": "nodes", "amenity": "fast_food", "name": "Swing Kitchen"}},{"type": "Feature", "geometry": {"type":"Point","coordinates":[13.3892871,52.5197964]}, "properties": {"osm_id": 333136725, "osm_type": "nodes", "amenity": "fast_food", "name": "dean&david"}},{"type": "Feature", "geometry": {"type":"Point","coordinates":[13.3892837,52.5199327]}, "properties": {"osm_id": 989022907, "osm_type": "nodes", "amenity": "cafe", "name": "Bistro"}},{"type": "Feature", "geometry": {"type":"Point","coordinates":[13.3886757,52.5197446]}, "properties": {"osm_id": 443458065, "osm_type": "nodes", "amenity": "restaurant", "name": "Nonna's"}},{"type": "Feature", "geometry": {"type":"Point","coordinates":[13.3889263,52.5186331]}, "properties": {"osm_id": 1665158255, "osm_type": "nodes", "amenity": "fast_food", "name": "Dussmann Deli"}},{"type": "Feature", "geometry": {"type":"Point","coordinates":[13.3146831,52.5100042]}, "properties": {"osm_id": 715911684, "osm_type": "nodes", "amenity": "fast_food", "name": "Sing-Le"}},{"type": "Feature", "geometry": {"type":"Point","coordinates":[13.3148931,52.5108384]}, "properties": {"osm_id": 5479931943, "osm_type": "nodes", "amenity": "restaurant", "name": "Blizzeria Pizza & Burger & Mehr"}},{"type": "Feature", "geometry": {"type":"Point","coordinates":[13.3146441,52.5128915]}, "properties": {"osm_id": 11211969834, "osm_type": "nodes", "amenity": "restaurant", "name": "Rong's Noodlehouse"}},{"type": "Feature", "geometry": {"type":"Point","coordinates":[13.3146541,52.5129136]}, "properties": {"osm_id": 2117724671, "osm_type": "nodes", "amenity": "restaurant", "name": "Rong's Noodlehouse"}},{"type": "Feature", "geometry": {"type":"Point","coordinates":[13.3139715,52.5107741]}, "properties": {"osm_id": 715911583, "osm_type": "nodes", "amenity": "restaurant", "name": "Makénéné"}},{"type": "Feature", "geometry": {"type":"Point","coordinates":[13.3154852,52.5459386]}, "properties": {"osm_id": 7889885897, "osm_type": "nodes", "amenity": "restaurant", "name": "Adria-Grill"}},{"type": "Feature", "geometry": {"type":"Point","coordinates":[13.3176486,52.5461493]}, "properties": {"osm_id": 3341212286, "osm_type": "nodes", "amenity": "restaurant", "name": "Catering Service Rodewald"}},{"type": "Feature", "geometry": {"type":"Point","coordinates":[13.3182405,52.5193058]}, "properties": {"osm_id": 862030870, "osm_type": "nodes", "amenity": "restaurant", "name": "Moustache"}},{"type": "Feature", "geometry": {"type":"Point","coordinates":[13.3185195,52.5191623]}, "properties": {"osm_id": 697977970, "osm_type": "nodes", "amenity": "restaurant", "name": "Ambrosios"}},{"type": "Feature", "geometry": {"type":"Point","coordinates":[13.3884607,52.5293481]}, "properties": {"osm_id": 10710987905, "osm_type": "nodes", "amenity": "cafe", "name": "Sakura"}},{"type": "Feature", "geometry": {"type":"Point","coordinates":[13.3880961,52.5294941]}, "properties": {"osm_id": 5324651378, "osm_type": "nodes", "amenity": "bar", "name": "Schwipss"}},{"type": "Feature", "geometry": {"type":"Point","coordinates":[13.3882109,52.528723]}, "properties": {"osm_id": 1295438384, "osm_type": "nodes", "amenity": "bar", "name": "Reingold"}},{"type": "Feature", "geometry": {"type":"Point","coordinates":[13.3883043,52.5291711]}, "properties": {"osm_id": 3734960540, "osm_type": "nodes", "amenity": "restaurant", "name": "Petrarca"}},{"type": "Feature", "geometry": {"type":"Point","coordinates":[13.3880742,52.5202536]}, "properties": {"osm_id": 2057504112, "osm_type": "nodes", "amenity": "fast_food", "name": "Bier's S Friedrichstraße"}},{"type": "Feature", "geometry": {"type":"Point","coordinates":[13.3881131,52.5202451]}, "properties": {"osm_id": 10134091439, "osm_type": "nodes", "amenity": "fast_food", "name": "Witty's Bio-Currywurst"}},{"type": "Feature", "geometry": {"type":"Point","coordinates":[13.3881078,52.5202745]}, "properties": {"osm_id": 4839547039, "osm_type": "nodes", "amenity": "fast_food", "name": "Pergamon Döner & Pizza"}},{"type": "Feature", "geometry": {"type":"Point","coordinates":[13.3883069,52.5216924]}, "properties": {"osm_id": 541101559, "osm_type": "nodes", "amenity": "bar", "name": "meliá tapas"}},{"type": "Feature", "geometry": {"type":"Point","coordinates":[13.3884197,52.5205861]}, "properties": {"osm_id": 1349696698, "osm_type": "nodes", "amenity": "fast_food", "name": "Prime Kebap"}},{"type": "Feature", "geometry": {"type":"Point","coordinates":[13.3884623,52.5203975]}, "properties": {"osm_id": 1349696691, "osm_type": "nodes", "amenity": "restaurant", "name": "BLOCK HOUSE"}},{"type": "Feature", "geometry": {"type":"Point","coordinates":[13.3884622,52.5208138]}, "properties": {"osm_id": 333160358, "osm_type": "nodes", "amenity": "restaurant", "name": "Peter Pane"}},{"type": "Feature", "geometry": {"type":"Point","coordinates":[13.3869299,52.5303539]}, "properties": {"osm_id": 2309384556, "osm_type": "nodes", "amenity": "restaurant", "name": "Happy Buddha"}},{"type": "Feature", "geometry": {"type":"Point","coordinates":[13.3852793,52.5301264]}, "properties": {"osm_id": 1731268880, "osm_type": "nodes", "amenity": "bar", "name": "Jazz Club Schlot"}},{"type": "Feature", "geometry": {"type":"Point","coordinates":[13.385434,52.5288404]}, "properties": {"osm_id": 2266030779, "osm_type": "nodes", "amenity": "pub", "name": "Quelleck"}},{"type": "Feature", "geometry": {"type":"Point","coordinates":[13.38552,52.5288552]}, "properties": {"osm_id": 6181021245, "osm_type": "nodes", "amenity": "fast_food", "name": "Kebap 63"}},{"type": "Feature", "geometry": {"type":"Point","coordinates":[13.3856375,52.5286774]}, "properties": {"osm_id": 2866993674, "osm_type": "nodes", "amenity": "bar", "name": "Kleopatra Shishabar"}},{"type": "Feature", "geometry": {"type":"Point","coordinates":[13.318676,52.5299415]}, "properties": {"osm_id": 1311028992, "osm_type": "nodes", "amenity": "restaurant", "name": "Trofeo / Parc Fermè"}},{"type": "Feature", "geometry": {"type":"Point","coordinates":[13.3186884,52.5286875]}, "properties": {"osm_id": 1152574702, "osm_type": "nodes", "amenity": "fast_food", "name": "Telepizza"}},{"type": "Feature", "geometry": {"type":"Point","coordinates":[13.3185036,52.5286966]}, "properties": {"osm_id": 2732832540, "osm_type": "nodes", "amenity": "restaurant", "name": "Good Rice"}},{"type": "Feature", "geometry": {"type":"Point","coordinates":[13.3193035,52.5289387]}, "properties": {"osm_id": 2198204068, "osm_type": "nodes", "amenity": "restaurant", "name": "Toplife"}},{"type": "Feature", "geometry": {"type":"Point","coordinates":[13.3192881,52.52867]}, "properties": {"osm_id": 2815379155, "osm_type": "nodes", "amenity": "cafe", "name": "Lila Pause"}},{"type": "Feature", "geometry": {"type":"Point","coordinates":[13.318287,52.5287452]}, "properties": {"osm_id": 439752059, "osm_type": "nodes", "amenity": "bar", "name": "Huttenklause"}},{"type": "Feature", "geometry": {"type":"Point","coordinates":[13.31727,52.5291922]}, "properties": {"osm_id": 2711790241, "osm_type": "nodes", "amenity": "bar", "name": "Hurricane"}},{"type": "Feature", "geometry": {"type":"Point","coordinates":[13.3161421,52.5305032]}, "properties": {"osm_id": 2737042889, "osm_type": "nodes", "amenity": "fast_food", "name": "Mr Singh Pizzas"}},{"type": "Feature", "geometry": {"type":"Point","coordinates":[13.3178799,52.5256393]}, "properties": {"osm_id": 3358066813, "osm_type": "nodes", "amenity": "fast_food", "name": "City Bistro"}},{"type": "Feature", "geometry": {"type":"Point","coordinates":[13.3163632,52.5256072]}, "properties": {"osm_id": 3134605457, "osm_type": "nodes", "amenity": "restaurant", "name": "Musuko 1984"}},{"type": "Feature", "geometry": {"type":"Point","coordinates":[13.3877509,52.5197141]}, "properties": {"osm_id": 267851662, "osm_type": "nodes", "amenity": "restaurant", "name": "Hoa Rong"}},{"type": "Feature", "geometry": {"type":"Point","coordinates":[13.388129,52.5195458]}, "properties": {"osm_id": 11691376307, "osm_type": "nodes", "amenity": "fast_food", "name": "Dunkin'"}},{"type": "Feature", "geometry": {"type":"Point","coordinates":[13.3884973,52.5199855]}, "properties": {"osm_id": 6498044658, "osm_type": "nodes", "amenity": "fast_food", "name": "Mishba"}},{"type": "Feature", "geometry": {"type":"Point","coordinates":[13.335613,52.5287225]}, "properties": {"osm_id": 1851822930, "osm_type": "nodes", "amenity": "cafe", "name": "Café Zina"}},{"type": "Feature", "geometry": {"type":"Point","coordinates":[13.3358274,52.5297036]}, "properties": {"osm_id": 4789969056, "osm_type": "nodes", "amenity": "pub", "name": "Oldenburger Klause"}},{"type": "Feature", "geometry": {"type":"Point","coordinates":[13.3350137,52.5306192]}, "properties": {"osm_id": 4411407835, "osm_type": "nodes", "amenity": "bar", "name": "Nord-West-Oase"}},{"type": "Feature", "geometry": {"type":"Point","coordinates":[13.3309254,52.5307955]}, "properties": {"osm_id": 546290481, "osm_type": "nodes", "amenity": "fast_food", "name": "Darbar"}},{"type": "Feature", "geometry": {"type":"Point","coordinates":[13.3309431,52.5300459]}, "properties": {"osm_id": 2834923060, "osm_type": "nodes", "amenity": "pub", "name": "Cafe BB21"}},{"type": "Feature", "geometry": {"type":"Point","coordinates":[13.3307478,52.5308134]}, "properties": {"osm_id": 2824824755, "osm_type": "nodes", "amenity": "bar", "name": "Taki's Taverne"}},{"type": "Feature", "geometry": {"type":"Point","coordinates":[13.3302443,52.531089]}, "properties": {"osm_id": 587645956, "osm_type": "nodes", "amenity": "restaurant", "name": "Pizzeria Europa"}},{"type": "Feature", "geometry": {"type":"Point","coordinates":[13.3336373,52.5270946]}, "properties": {"osm_id": 2203160508, "osm_type": "nodes", "amenity": "restaurant", "name": "Boğaziçi"}},{"type": "Feature", "geometry": {"type":"Point","coordinates":[13.3338667,52.5243061]}, "properties": {"osm_id": 30057218, "osm_type": "nodes", "amenity": "fast_food", "name": "Bistro Öz Tadim"}},{"type": "Feature", "geometry": {"type":"Point","coordinates":[13.3338029,52.52394]}, "properties": {"osm_id": 5456337638, "osm_type": "nodes", "amenity": "cafe", "name": "Mia y Leo"}},{"type": "Feature", "geometry": {"type":"Point","coordinates":[13.3327838,52.5267982]}, "properties": {"osm_id": 4761858225, "osm_type": "nodes", "amenity": "cafe", "name": "Alnatura Café-Bar"}},{"type": "Feature", "geometry": {"type":"Point","coordinates":[13.3329009,52.5256406]}, "properties": {"osm_id": 1105811177, "osm_type": "nodes", "amenity": "pub", "name": "Café Mauerwerk"}},{"type": "Feature", "geometry": {"type":"Point","coordinates":[13.3325813,52.5240862]}, "properties": {"osm_id": 315757117, "osm_type": "nodes", "amenity": "fast_food", "name": "Sushi Shop"}},{"type": "Feature", "geometry": {"type":"Point","coordinates":[13.3322931,52.5271978]}, "properties": {"osm_id": 2505407354, "osm_type": "nodes", "amenity": "fast_food", "name": "Taksim Döner"}},{"type": "Feature", "geometry": {"type":"Point","coordinates":[13.3311027,52.528319]}, "properties": {"osm_id": 926945640, "osm_type": "nodes", "amenity": "pub", "name": "Holzwurm"}},{"type": "Feature", "geometry": {"type":"Point","coordinates":[13.3301531,52.5274403]}, "properties": {"osm_id": 624646233, "osm_type": "nodes", "amenity": "fast_food", "name": "Green 56"}},{"type": "Feature", "geometry": {"type":"Point","coordinates":[13.3303562,52.5275781]}, "properties": {"osm_id": 620041122, "osm_type": "nodes", "amenity": "restaurant", "name": "Il Buco"}},{"type": "Feature", "geometry": {"type":"Point","coordinates":[13.3304119,52.5277622]}, "properties": {"osm_id": 5674154573, "osm_type": "nodes", "amenity": "cafe", "name": "Garcia Kaffeebar"}},{"type": "Feature", "geometry": {"type":"Point","coordinates":[13.3303554,52.5276285]}, "properties": {"osm_id": 9961616786, "osm_type": "nodes", "amenity": "restaurant", "name": "Meshur"}},{"type": "Feature", "geometry": {"type":"Point","coordinates":[13.3304278,52.5278383]}, "properties": {"osm_id": 4411523493, "osm_type": "nodes", "amenity": "pub", "name": "Finest's"}},{"type": "Feature", "geometry": {"type":"Point","coordinates":[13.330514,52.5282981]}, "properties": {"osm_id": 2834923044, "osm_type": "nodes", "amenity": "restaurant", "name": "La Tettoia"}},{"type": "Feature", "geometry": {"type":"Point","coordinates":[13.3306353,52.527436]}, "properties": {"osm_id": 3615491771, "osm_type": "nodes", "amenity": "fast_food", "name": "Baran Döner Station"}},{"type": "Feature", "geometry": {"type":"Point","coordinates":[13.3309729,52.5280016]}, "properties": {"osm_id": 6325006706, "osm_type": "nodes", "amenity": "cafe", "name": "Wald Café"}},{"type": "Feature", "geometry": {"type":"Point","coordinates":[13.3308641,52.5273463]}, "properties": {"osm_id": 867497526, "osm_type": "nodes", "amenity": "cafe", "name": "Pfau"}},{"type": "Feature", "geometry": {"type":"Point","coordinates":[13.3304002,52.5269842]}, "properties": {"osm_id": 3615491772, "osm_type": "nodes", "amenity": "fast_food", "name": "Halis Kebap"}},{"type": "Feature", "geometry": {"type":"Point","coordinates":[13.3306378,52.5266147]}, "properties": {"osm_id": 867497546, "osm_type": "nodes", "amenity": "restaurant", "name": null}},{"type": "Feature", "geometry": {"type":"Point","coordinates":[13.333202,52.5206609]}, "properties": {"osm_id": 3268626114, "osm_type": "nodes", "amenity": "restaurant", "name": "Neretva Grill"}},{"type": "Feature", "geometry": {"type":"Point","coordinates":[13.3342,52.5229748]}, "properties": {"osm_id": 416973372, "osm_type": "nodes", "amenity": "restaurant", "name": "Taverna Phaestos"}},{"type": "Feature", "geometry": {"type":"Point","coordinates":[13.3361519,52.5217055]}, "properties": {"osm_id": 4686698917, "osm_type": "nodes", "amenity": "restaurant", "name": "mokka"}},{"type": "Feature", "geometry": {"type":"Point","coordinates":[13.3341353,52.5224936]}, "properties": {"osm_id": 1405850098, "osm_type": "nodes", "amenity": "restaurant", "name": "Master Wok's Asia Imbiss"}},{"type": "Feature", "geometry": {"type":"Point","coordinates":[13.3358852,52.523466]}, "properties": {"osm_id": 3754658221, "osm_type": "nodes", "amenity": "restaurant", "name": "Chum's Vietnamese Cuisine"}},{"type": "Feature", "geometry": {"type":"Point","coordinates":[13.3411656,52.5272358]}, "properties": {"osm_id": 2420872155, "osm_type": "nodes", "amenity": "bar", "name": "Essence Bar"}},{"type": "Feature", "geometry": {"type":"Point","coordinates":[13.3417232,52.5280239]}, "properties": {"osm_id": 7184234441, "osm_type": "nodes", "amenity": "cafe", "name": "Co-workingspace"}},{"type": "Feature", "geometry": {"type":"Point","coordinates":[13.3415614,52.5279336]}, "properties": {"osm_id": 4349385993, "osm_type": "nodes", "amenity": "pub", "name": "Kowski"}},{"type": "Feature", "geometry": {"type":"Point","coordinates":[13.3415373,52.5285105]}, "properties": {"osm_id": 895722650, "osm_type": "nodes", "amenity": "restaurant", "name": "Taverna Amphipolis"}},{"type": "Feature", "geometry": {"type":"Point","coordinates":[13.3415141,52.5298528]}, "properties": {"osm_id": 2420872158, "osm_type": "nodes", "amenity": "restaurant", "name": "Sugar"}},{"type": "Feature", "geometry": {"type":"Point","coordinates":[13.3411616,52.5301741]}, "properties": {"osm_id": 2712285022, "osm_type": "nodes", "amenity": "bar", "name": "George R"}},{"type": "Feature", "geometry": {"type":"Point","coordinates":[13.3401888,52.53017]}, "properties": {"osm_id": 2427442170, "osm_type": "nodes", "amenity": "pub", "name": "Zum Stammtisch"}},{"type": "Feature", "geometry": {"type":"Point","coordinates":[13.3401827,52.5298692]}, "properties": {"osm_id": 6851358195, "osm_type": "nodes", "amenity": "cafe", "name": "Monkey Mind Cafe"}},{"type": "Feature", "geometry": {"type":"Point","coordinates":[13.3389038,52.5280733]}, "properties": {"osm_id": 9236256953, "osm_type": "nodes", "amenity": "restaurant", "name": "Mangiare Berlin"}},{"type": "Feature", "geometry": {"type":"Point","coordinates":[13.3389601,52.5278595]}, "properties": {"osm_id": 9236268318, "osm_type": "nodes", "amenity": "restaurant", "name": "Sljiva"}},{"type": "Feature", "geometry": {"type":"Point","coordinates":[13.3415598,52.5278185]}, "properties": {"osm_id": 3883064614, "osm_type": "nodes", "amenity": "fast_food", "name": "Oh my Bap"}},{"type": "Feature", "geometry": {"type":"Point","coordinates":[13.3393944,52.5277872]}, "properties": {"osm_id": 2256111701, "osm_type": "nodes", "amenity": "cafe", "name": "Café Wunder"}},{"type": "Feature", "geometry": {"type":"Point","coordinates":[13.3223481,52.5234417]}, "properties": {"osm_id": 614502665, "osm_type": "nodes", "amenity": "cafe", "name": "lunch+more"}},{"type": "Feature", "geometry": {"type":"Point","coordinates":[13.3234413,52.5232961]}, "properties": {"osm_id": 447436526, "osm_type": "nodes", "amenity": "cafe", "name": "Cafeteria im PTZ"}},{"type": "Feature", "geometry": {"type":"Point","coordinates":[13.3224168,52.5215775]}, "properties": {"osm_id": 1915428400, "osm_type": "nodes", "amenity": "restaurant", "name": "Modo Mio"}},{"type": "Feature", "geometry": {"type":"Point","coordinates":[13.322471,52.5213602]}, "properties": {"osm_id": 1608389860, "osm_type": "nodes", "amenity": "restaurant", "name": "Taiwanesische Bauernstube"}},{"type": "Feature", "geometry": {"type":"Point","coordinates":[13.3228155,52.5213484]}, "properties": {"osm_id": 1069624119, "osm_type": "nodes", "amenity": "restaurant", "name": "Café & Restaurant Bares"}},{"type": "Feature", "geometry": {"type":"Point","coordinates":[13.3221544,52.5209683]}, "properties": {"osm_id": 1753810056, "osm_type": "nodes", "amenity": "fast_food", "name": "Anatolische Küche"}},{"type": "Feature", "geometry": {"type":"Point","coordinates":[13.3238568,52.5215298]}, "properties": {"osm_id": 2281112714, "osm_type": "nodes", "amenity": "fast_food", "name": "Viet Station"}},{"type": "Feature", "geometry": {"type":"Point","coordinates":[13.3044186,52.5156941]}, "properties": {"osm_id": 3710018859, "osm_type": "nodes", "amenity": "cafe", "name": "Milchbubies"}},{"type": "Feature", "geometry": {"type":"Point","coordinates":[13.3045265,52.5157017]}, "properties": {"osm_id": 7004944187, "osm_type": "nodes", "amenity": "restaurant", "name": "Rotbohnen"}},{"type": "Feature", "geometry": {"type":"Point","coordinates":[13.3045292,52.515763]}, "properties": {"osm_id": 10537010386, "osm_type": "nodes", "amenity": "pub", "name": "Zum Wilmi"}},{"type": "Feature", "geometry": {"type":"Point","coordinates":[13.3044984,52.5159595]}, "properties": {"osm_id": 7200854535, "osm_type": "nodes", "amenity": "cafe", "name": "Hängemate"}},{"type": "Feature", "geometry": {"type":"Point","coordinates":[13.3045991,52.5153002]}, "properties": {"osm_id": 661126968, "osm_type": "nodes", "amenity": "cafe", "name": "Schlesische Backstube Hutzelmann"}},{"type": "Feature", "geometry": {"type":"Point","coordinates":[13.3013634,52.5153329]}, "properties": {"osm_id": 661126956, "osm_type": "nodes", "amenity": "fast_food", "name": "Maxim´s China-Imbiss"}},{"type": "Feature", "geometry": {"type":"Point","coordinates":[13.300796,52.5140945]}, "properties": {"osm_id": 9737167645, "osm_type": "nodes", "amenity": "bar", "name": "Katre"}},{"type": "Feature", "geometry": {"type":"Point","coordinates":[13.3027152,52.5149541]}, "properties": {"osm_id": 924102759, "osm_type": "nodes", "amenity": "restaurant", "name": "Taverna Elena"}},{"type": "Feature", "geometry": {"type":"Point","coordinates":[13.3301138,52.5262645]}, "properties": {"osm_id": 867497521, "osm_type": "nodes", "amenity": "restaurant", "name": "PHO 6"}},{"type": "Feature", "geometry": {"type":"Point","coordinates":[13.3303048,52.5252804]}, "properties": {"osm_id": 7089755262, "osm_type": "nodes", "amenity": "fast_food", "name": "Sushi Mana"}},{"type": "Feature", "geometry": {"type":"Point","coordinates":[13.3302945,52.5251841]}, "properties": {"osm_id": 7089755261, "osm_type": "nodes", "amenity": "bar", "name": "Laros"}},{"type": "Feature", "geometry": {"type":"Point","coordinates":[13.330273,52.5251095]}, "properties": {"osm_id": 4452581567, "osm_type": "nodes", "amenity": "cafe", "name": "Spontan"}},{"type": "Feature", "geometry": {"type":"Point","coordinates":[13.3311755,52.5273017]}, "properties": {"osm_id": 1319751809, "osm_type": "nodes", "amenity": "cafe", "name": "Cafe Bar Istanbul"}},{"type": "Feature", "geometry": {"type":"Point","coordinates":[13.3312093,52.5269475]}, "properties": {"osm_id": 2505407351, "osm_type": "nodes", "amenity": "fast_food", "name": "Baba Sultan Köfteci"}},{"type": "Feature", "geometry": {"type":"Point","coordinates":[13.3312147,52.5272994]}, "properties": {"osm_id": 4411418619, "osm_type": "nodes", "amenity": "fast_food", "name": "Baklavalari"}},{"type": "Feature", "geometry": {"type":"Point","coordinates":[13.3314185,52.5272807]}, "properties": {"osm_id": 6430926122, "osm_type": "nodes", "amenity": "fast_food", "name": "Hoa Sushi"}},{"type": "Feature", "geometry": {"type":"Point","coordinates":[13.3315002,52.5272738]}, "properties": {"osm_id": 6430926121, "osm_type": "nodes", "amenity": "bar", "name": "Nara-Bar"}},{"type": "Feature", "geometry": {"type":"Point","coordinates":[13.3318248,52.5272698]}, "properties": {"osm_id": 6430926123, "osm_type": "nodes", "amenity": "bar", "name": "Keyta Lounge"}},{"type": "Feature", "geometry": {"type":"Point","coordinates":[13.329871,52.5253086]}, "properties": {"osm_id": 5273816176, "osm_type": "nodes", "amenity": "restaurant", "name": "An Nam"}},{"type": "Feature", "geometry": {"type":"Point","coordinates":[13.3298869,52.5254065]}, "properties": {"osm_id": 867497551, "osm_type": "nodes", "amenity": "restaurant", "name": "Rice Village"}},{"type": "Feature", "geometry": {"type":"Point","coordinates":[13.3299243,52.5255661]}, "properties": {"osm_id": 867497554, "osm_type": "nodes", "amenity": "pub", "name": "Exclusive Coffee"}},{"type": "Feature", "geometry": {"type":"Point","coordinates":[13.3299052,52.5254463]}, "properties": {"osm_id": 867497537, "osm_type": "nodes", "amenity": "cafe", "name": "Eis Rialto"}},{"type": "Feature", "geometry": {"type":"Point","coordinates":[13.33005,52.5261062]}, "properties": {"osm_id": 6882944685, "osm_type": "nodes", "amenity": "fast_food", "name": "Bamboo"}},{"type": "Feature", "geometry": {"type":"Point","coordinates":[13.3298283,52.5270987]},